     2.11           OBSERVATION DATA    M (MIXED)           RINEX VERSION / TYPE
teqc  2018Jun8                          20200124 10:30:48UTCPGM / RUN BY / DATE
Linux2.6.32-573.12.1.el6.x86_64|x86_64|gcc|Win64-MinGW64|=+ COMMENT
teqc  2018Oct12     UNAVCO Archive Ops  20181116 19:57:15UTCCOMMENT
Solaris x86 5.10|AMD64|cc SC5.8 -xarch=amd64|=+|=+          COMMENT
BIT 2 OF LLI FLAGS DATA COLLECTED UNDER A/S CONDITION       COMMENT
IAGX                                                        MARKER NAME
                                                            MARKER NUMBER
Alejandro Gonzalez-OCICESE                                  OBSERVER / AGENCY
4931K62904          TRIMBLE NETR8       4.87                REC # / TYPE / VERS
20365585            TRM59800.00     SCIT                    ANT # / TYPE
 -2196283.5794 -5131269.9164  3076549.5719                  APPROX POSITION XYZ
        0.0083        0.0000        0.0000                  ANTENNA: DELTA H/E/N
     1     1                                                WAVELENGTH FACT L1/2
     5    L1    C1    L2    P2    D1                        # / TYPES OF OBSERV
    30.0000                                                 INTERVAL
    18                                                      LEAP SECONDS
input file: iagx201803090000a.tgd                           COMMENT
RINEX file created by UNAVCO GPS Archive.                   COMMENT
For more information contact archive-gps@unavco.org         COMMENT
Monument ID: 25683                                          COMMENT
UNAVCO 4-char name:   IAGX                                  COMMENT
4-char name from Log or data file: IAGX                     COMMENT
Monument location: 29.026575 -113.171869 149.5              COMMENT
Visit ID: 122930                                            COMMENT
                                                            COMMENT
iagxREGNOMmx2018                                            COMMENT
                                                            COMMENT
End of DB comments                                          COMMENT
 SNR is mapped to RINEX snr flag value [0-9]                COMMENT
  L1 & L2: min(max(int(snr_dBHz/6), 0), 9)                  COMMENT
Forced Modulo Decimation to 30 seconds                      COMMENT
teqc edited: all GLONASS satellites excluded                COMMENT
teqc edited: all SBAS satellites excluded                   COMMENT
teqc edited: all Galileo satellites excluded                COMMENT
teqc edited: all Beidou satellites excluded                 COMMENT
teqc edited: all QZSS satellites excluded                   COMMENT
  2018     3     9     0     0    0.0000000     GPS         TIME OF FIRST OBS
                                                            END OF HEADER
 18  3  9  0  0  0.0000000  0 11G07G11G19G28G30G15G06G01G09G17G13
 114546951.868 8  21797561.859    89257368.12846  21797570.426
 118784286.583 7  22603893.102    92559226.80144  22603900.086
 115254465.495 7  21932178.406    89808711.50346  21932185.039
 112809895.926 8  21467007.461    87903823.53446  21467014.738
 108243336.735 8  20598022.484    84345470.19947  20598032.398
 128100833.765 7  24376765.227    99818809.97443  24376772.738
 132102137.21915  25138196.844   102936782.39852  25138213.031
 120293047.564 6  22890988.398    93734847.88344  22890999.953
 134437713.957 5  25582643.586
 109216576.435 8  20783203.258    85103842.98747  20783211.238
 115278705.437 7  21936807.742    89827610.85345  21936815.605
 18  3  9  0  0 30.0000000  0 11G07G11G19G28G30G15G06G01G09G17G13
 114612094.058 8  21809958.320    89308128.24246  21809966.652
 118832568.677 7  22613081.250    92596849.18944  22613087.883
 115166380.783 7  21915416.695    89740074.09146  21915422.625
 112830237.513 8  21470878.719    87919674.11446  21470885.703
 108271703.834 8  20603420.492    84367574.43347  20603430.758
 128051675.703 7  24367410.195    99780504.99043  24367418.586
 132006058.94914  25119917.188   102861915.97052  25119930.207
 120292928.908 6  22890965.852    93734755.43244  22890977.230
 134539995.793 6  25602108.992
 109181268.291 8  20776484.445    85076330.16547  20776492.367
 115253507.100 7  21932012.930    89807975.78945  21932020.148
 18  3  9  0  1  0.0000000  0 11G07G11G19G28G30G15G06G01G09G17G13
 114677619.189 8  21822427.234    89359186.75845  21822435.156
 118881378.222 7  22622368.680    92634882.61244  22622375.840
 115078672.912 7  21898726.500    89671730.32746  21898732.781
 112850610.541 8  21474755.484    87935549.20246  21474762.527
 108300496.650 8  20608899.336    84390010.39047  20608909.836
 128002974.553 7  24358142.766    99742556.04843  24358151.098
 131909798.02115  25101600.633   102786907.87852  25101612.012
 120293369.842 6  22891048.852    93735099.02744  22891060.934
 134642100.786 5  25621538.273
 109146445.307 8  20769858.109    85049195.38447  20769865.738
 115228890.941 7  21927328.945    89788794.36145  21927335.930
 18  3  9  0  1 30.0000000  0 11G07G11G19G28G30G15G06G01G09G17G13
 114743526.363 8  21834969.109    89410542.97845  21834977.207
 118930714.046 7  22631757.766    92673326.10844  22631764.457
 114991343.596 7  21882108.188    89603681.53846  21882114.527
 112871014.702 8  21478638.016    87951448.55146  21478645.469
 108329715.701 8  20614459.578    84412778.47947  20614469.727
 127954731.566 7  24348961.883    99704964.10243  24348970.156
 131813354.952 5  25083240.758   102711757.61142  25083258.820
 120294371.248 6  22891240.117    93735879.36144  22891251.496
 134744024.82914  25640938.719
 109112107.627 8  20763323.820    85022438.77447  20763331.449
 115204857.697 8  21922754.844    89770067.15945  21922762.766
 18  3  9  0  2  0.0000000  0 10G07G11G19G28G30G15G06G01G17G13
 114809815.593 8  21847583.203    89462196.89545  21847591.184
 118980574.841 7  22641246.023    92712178.66044  22641253.359
 114904395.012 7  21865562.383    89535929.43146  21865568.195
 112891449.839 8  21482526.789    87967372.03746  21482533.539
 108359361.465 8  20620101.203    84435879.07847  20620111.586
 127906948.131 7  24339869.273    99667730.28443  24339877.430
 131716732.339 5  25064861.563   102636467.50243  25064873.352
 120295933.967 6  22891538.320    93737097.09944  22891548.352
 109078255.586 8  20756882.273    84996060.57847  20756889.551
 115181408.154 7  21918292.617    89751794.79745  21918300.773
 18  3  9  0  2 30.0000000  0 10G07G11G19G28G30G15G06G01G17G13
 114876485.414 8  21860270.477    89514147.38145  21860278.574
 119030958.359 7  22650833.211    92751438.54044  22650839.902
 114817828.473 7  21849089.313    89468475.01346  21849095.477
 112911914.614 8  21486421.438    87983318.60946  21486428.305
 108389433.900 8  20625824.188    84459312.14147  20625833.926
 127859624.945 7  24330864.102    99630855.08743  24330872.961
 131619932.42615  25046437.953
 120298058.408 6  22891941.938    93738752.51944  22891953.668
 109044888.846 8  20750532.438    84970060.54047  20750540.184
 115158542.187 8  21913941.125    89733977.14845  21913949.398
 18  3  9  0  3  0.0000000  0 10G07G11G19G28G30G15G06G01G17G13
 114943535.190 8  21873029.578    89566393.92446  21873037.910
 119081863.422 7  22660520.016    92791104.81444  22660527.176
 114731646.324 7  21832689.711    89401320.12946  21832695.582
 112932408.661 8  21490320.797    87999287.98946  21490328.191
 108419933.592 8  20631627.961    84483078.13247  20631637.348
 127812763.244 7  24321945.742    99594339.49443  24321954.602
 131522956.122 5  25027979.500   102485462.63242  25027997.621
 120300745.421 6  22892453.055    93740846.28144  22892465.195
 109012007.546 8  20744275.406    84944438.76747  20744282.742
 115136260.634 7  21909701.648    89716614.89345  21909709.102
 18  3  9  0  3 30.0000000  0 10G07G11G19G28G30G15G06G01G17G13
 115010964.400 8  21885860.961    89618936.13345  21885869.059
 119133288.463 7  22670305.820    92831176.25644  22670313.449
 114645850.045 7  21816363.039    89334465.91446  21816368.910
 112952931.257 8  21494226.844    88015279.62146  21494234.063
 108450860.768 8  20637513.281    84507177.21647  20637523.020
 127766364.010 7  24313116.992    99558184.25443  24313125.441
 131425806.292 5  25009496.320   102409761.68742  25009510.516
 120303995.541 7  22893071.875    93743378.84344  22893083.313
 108979611.665 8  20738110.531    84919195.23847  20738118.160
 115114563.883 8  21905572.797    89699708.33345  21905580.250
 18  3  9  0  4  0.0000000  0 10G07G11G19G28G30G15G06G01G17G13
 115078772.496 8  21898764.313    89671773.57945  21898772.117
 119185231.785 7  22680190.945    92871651.56444  22680197.578
 114560442.011 7  21800110.438    89267914.23646  21800116.543
 112973482.511 8  21498137.055    88031293.58546  21498144.508
 108482215.943 8  20643479.594    84531609.81547  20643489.801
 127720428.528 7  24304375.867    99522390.40443  24304384.023
 131328485.561 6  24990977.406   102333927.44642  24990991.070
 120307809.712 6  22893797.750    93746350.93344  22893809.188
 108947701.525 8  20732038.172    84894330.21147  20732046.094
 115093452.678 7  21901555.531    89683258.03845  21901562.867
 18  3  9  0  4 30.0000000  0 10G07G11G19G28G30G15G06G01G17G13
 115146958.740 8  21911740.141    89724905.69646  21911747.828
 119237692.164 7  22690173.930    92912529.77344  22690180.738
 114475424.009 7  21783931.664    89201666.46646  21783938.180
 112994061.700 8  21502053.617    88047329.31246  21502060.367
 108513999.722 8  20649527.938    84556376.38647  20649537.910
 127674958.057 7  24295722.422    99486958.88943  24295730.754
 131230996.330 6  24972426.484   102257962.02442  24972438.273
 120312188.798 6  22894630.813    93749763.23344  22894641.547
 108916277.442 8  20726058.688    84869843.92147  20726066.375
 115072927.594 7  21897649.250    89667264.46245  21897657.289
 18  3  9  0  5  0.0000000  0 10G07G11G19G28G30G15G06G01G17G13
 115215522.288 8  21924787.078    89778331.81745  21924795.410
 119290667.712 7  22700254.313    92953809.39544  22700261.766
 114390797.708 7  21767828.211    89135723.92646  21767833.848
 113014668.076 8  21505974.648    88063386.22246  21505982.336
 108546211.864 8  20655657.500    84581476.74447  20655667.766
 127629953.290 7  24287158.484    99451890.24543  24287166.816
 131133340.650 5  24953839.539   102181866.76543  24953855.082
 120317132.951 6  22895571.531    93753615.83144  22895582.910
 108885338.651 8  20720170.945    84845735.79147  20720178.809
 115052988.576 7  21893855.594    89651727.55245  21893862.930
 18  3  9  0  5 30.0000000  0 10G07G11G19G28G30G15G06G01G17G13
 115284462.449 8  21937905.945    89832051.39245  21937914.277
 119344157.288 7  22710433.422    92995489.57444  22710440.289
 114306565.039 7  21751799.227    89070088.11146  21751805.508
 113035301.368 8  21509901.531    88079464.11146  21509908.340
 108578852.931 8  20661868.953    84606911.32747  20661879.102
 127585415.371 7  24278683.859    99417185.38943  24278691.430
 131035520.819 5  24935223.516   102105643.74543  24935240.406
 120322642.944 6  22896620.563    93757909.34044  22896631.063
 108854885.941 8  20714376.047    84822006.41347  20714384.203
 115033636.193 7  21890172.508    89636647.77445  21890180.313
 18  3  9  0  6  0.0000000  0 10G07G11G19G28G30G15G06G01G17G13
 115353778.625 7  21951096.352    89886063.96945  21951104.742
 119398158.681 7  22720709.219    93037568.58344  22720716.789
 114222728.203 7  21735845.766    89004760.73146  21735851.520
 113055961.242 8  21513832.766    88095562.71146  21513839.398
 108611922.927 8  20668161.891    84632680.14547  20668172.039
 127541345.395 7  24270296.984    99382845.16443  24270305.492
 130937539.095 5  24916579.117   102029294.47042  24916595.422
 120328719.100 6  22897775.766    93762644.01544  22897788.375
 108824918.768 8  20708673.500    84798655.38547  20708681.070
 115014870.474 7  21886601.758    89622025.12845  21886609.270
 18  3  9  0  6 30.0000000  0 10G07G11G19G28G30G15G06G01G17G13
 115423469.764 8  21964358.391    89940368.72145  21964366.840
 119452670.420 7  22731082.227    93080045.23744  22731089.914
 114139288.720 7  21719967.398    88939742.97946  21719973.680
 113076647.313 8  21517769.500    88111681.72946  21517776.543
 108645422.364 8  20674537.000    84658783.58747  20674547.207
 127497744.584 7  24262000.484    99348870.51643  24262008.816
 130839397.905 5  24897905.250   101952820.98842  24897919.973
 120335362.071 6  22899040.672    93767820.35444  22899052.285
 108795437.044 8  20703063.070    84775682.62647  20703070.523
 114996692.111 7  21883141.938    89607860.16645  21883150.094
 18  3  9  0  7  0.0000000  0 10G07G11G19G28G30G15G06G01G17G13
 115493535.456 8  21977691.563    89994965.33345  21977699.719
 119507690.972 7  22741552.391    93122918.39144  22741559.902
 114056248.453 7  21704165.195    88875036.30446  21704171.359
 113097358.975 8  21521709.852    88127820.67946  21521717.480
 108679351.706 8  20680993.523    84685222.02947  20681003.555
 127454613.795 7  24253793.000    99315262.10643  24253801.449
 130741099.800 5  24879199.508   101876225.24443  24879213.172
 120342572.783 6  22900412.016    93773439.10344  22900424.332
 108766441.313 8  20697545.602    84753088.56047  20697552.527
 114979101.664 7  21879794.789    89594153.32045  21879802.535
 18  3  9  0  7 30.0000000  0 10G07G11G19G28G30G15G06G01G17G13
 115563974.783 8  21991095.570    90049853.08545  21991103.375
 119563218.724 7  22752119.039    93166186.77044  22752126.258
 113973609.627 7  21688439.508    88810642.43446  21688445.555
 113118095.882 8  21525656.375    88143979.31046  21525663.301
 108713711.148 8  20687531.859    84711995.61147  20687541.598
 127411954.117 7  24245674.898    99282020.81243  24245683.172
 130642647.158 6  24860464.000   101799509.08243  24860478.016
 120350351.553 6  22901892.031    93779500.50444  22901904.348
 108737931.309 8  20692120.352    84730872.98047  20692128.039
 114962099.205 7  21876559.656    89580904.65045  21876567.578
 18  3  9  0  8  0.0000000  0 10G07G11G19G28G30G15G06G01G17G13
 115634786.647 8  22004570.703    90105031.13246  22004578.566
 119619251.878 7  22762782.078    93209848.94444  22762789.531
 113891373.548 7  21672789.992    88746562.40346  21672796.566
 113138857.831 8  21529607.070    88160157.44946  21529614.406
 108748500.808 8  20694152.125    84739104.43247  20694162.332
 127369766.325 7  24237646.805    99249147.22943  24237655.313
 130544042.296 6  24841700.930   101722674.32143  24841714.418
 120358698.765 6  22903481.477    93786004.83444  22903492.797
 108709906.329 8  20686787.461    84709035.33847  20686795.441
 114945685.154 8  21873436.164    89568114.47645  21873444.027
 18  3  9  0  8 30.0000000  0 10G07G11G19G28G30G15G06G01G17G13
 115705970.626 7  22018116.367    90160499.14745  22018124.641
 119675788.734 7  22773540.203    93253903.61944  22773547.070
 113809542.380 7  21657218.680    88682797.88646  21657225.313
 113159644.292 8  21533562.914    88176354.69346  21533569.547
 108783721.091 8  20700854.211    84766548.79947  20700864.418
 127328051.699 6  24229709.148    99216642.33143  24229717.012
 130445287.649 6  24822908.508   101645722.89042  24822921.938
 120367615.059 6  22905178.102    93792952.60444  22905189.715
 108682367.106 8  20681546.484    84687576.21847  20681554.172
 114929859.906 8  21870424.539    89555783.10845  21870432.051
 18  3  9  0  9  0.0000000  0 10G07G11G19G28G30G15G06G01G17G13
 115777525.709 8  22031732.570    90216256.31345  22031740.844
 119732827.206 7  22784394.602    93298349.18644  22784401.586
 113728117.547 7  21641723.664    88619349.99146  21641730.180
 113180454.740 8  21537523.070    88192570.62646  21537529.938
 108819371.882 8  20707638.250    84794328.62847  20707648.691
 127286810.766 7  24221861.219    99184506.53843  24221869.785
 130346385.276 6  24804087.102   101568656.24942  24804100.941
 120377100.543 6  22906982.922    93800343.90844  22906994.418
 108655312.945 8  20676398.688    84666495.06847  20676406.434
 114914623.013 8  21867525.297    89543910.20245  21867533.219
 18  3  9  0  9 30.0000000  0 10G07G11G19G28G30G15G06G01G17G13
 115849451.402 8  22045419.953    90272302.27145  22045428.285
 119790366.269 7  22795343.820    93343184.79744  22795351.508
 113647101.346 7  21626306.914    88556220.50946  21626313.137
 113201289.374 8  21541487.961    88208805.40146  21541494.242
 108855453.846 8  20714504.516    84822444.43447  20714515.074
 127246044.925 7  24214102.906    99152740.95644  24214111.941
 130247338.246 6  24785238.883   101491476.95943  24785253.195
 120387156.131 6  22908896.211    93808179.42344  22908907.941
 108628744.386 8  20671342.313    84645792.30347  20671350.117
 114899975.615 8  21864737.781    89532496.63645  21864745.762
 18  3  9  0 10  0.0000000  0 10G07G11G19G28G30G15G06G01G17G13
 115921746.681 8  22059177.648    90328636.21245  22059185.336
 119848403.779 7  22806388.055    93388408.82544  22806395.039
 113566495.206 7  21610968.359    88493410.56546  21610974.113
 113222147.097 8  21545456.516    88225058.16446  21545463.441
 108891966.959 8  20721452.648    84850896.20447  20721463.148
 127205754.526 7  24206436.477    99121345.84944  24206445.219
 130148148.487 6  24766362.789   101414186.46342  24766377.922
 120397781.861 7  22910918.711    93816459.23144  22910930.207
 108602660.784 8  20666379.102    84625467.42647  20666386.789
 114885917.376 8  21862062.797    89521542.16145  21862070.250
 18  3  9  0 10 30.0000000  0 10G07G11G19G28G30G15G06G01G17G13
 115994410.314 8  22073004.797    90385257.19245  22073013.012
 119906937.655 7  22817526.664    93434019.61744  22817534.117
 113486300.726 7  21595707.938    88430921.38446  21595714.336
 113243027.808 8  21549430.070    88241328.84146  21549437.230
 108928911.037 8  20728482.961    84879683.78847  20728493.168
 127165940.563 7  24198859.984    99090321.97343  24198868.961
 130048818.253 6  24747460.367   101336786.46642  24747475.559
 120408977.857 6  22913048.664    93825183.39444  22913060.395
 108577061.620 8  20661507.820    84605520.03347  20661515.449
 114872448.101 8  21859499.375    89511046.61445  21859507.297
 18  3  9  0 11  0.0000000  0 10G07G11G19G28G30G15G06G01G17G13
 116067442.034 8  22086902.242    90442164.99345  22086910.691
 119965966.617 7  22828759.727    93480016.19944  22828766.359
 113406519.988 8  21580525.734    88368754.60146  21580531.957
 113263931.394 8  21553407.625    88257617.34346  21553414.844
 108966286.718 8  20735595.680    84908807.68747  20735605.184
 127126604.231 7  24191374.531    99059670.32444  24191383.391
 129949350.459 6  24728532.664   101259279.32742  24728546.977
 120420744.819 6  22915288.477    93834352.47544  22915299.738
 108551947.404 8  20656728.453    84585950.52347  20656736.082
 114859568.336 7  21857048.719    89501010.43045  21857056.113
 18  3  9  0 11 30.0000000  0 10G07G11G19G28G30G15G06G01G17G13
 116140840.680 8  22100869.609    90499358.71145  22100877.355
 120025488.541 7  22840086.531    93526396.91944  22840093.398
 113327154.468 7  21565423.328    88306911.36546  21565429.258
 113284857.280 8  21557389.797    88273923.22846  21557397.309
 109004093.855 8  20742789.797    84938267.78147  20742800.297
 127087746.035 7  24183980.555    99029391.20043  24183988.301
 129849747.223 6  24709578.367   101181666.62142  24709593.207
 120433082.893 7  22917635.758    93843966.56044  22917646.961
 108527317.605 8  20652041.680    84566758.47847  20652049.191
 114847277.790 8  21854709.984    89491433.37845  21854717.965
 18  3  9  0 12  0.0000000  0 10G07G11G19G28G30G15G06G01G17G13
 116214605.203 8  22114906.500    90556837.53845  22114914.480
 120085501.784 7  22851506.703    93573160.47044  22851513.629
 113248205.980 7  21550399.852    88245393.08546  21550405.664
 113305805.077 8  21561376.250    88290246.18046  21561383.059
 109042332.658 8  20750065.930    84968064.23347  20750076.781
 127049366.895 6  24176676.086    98999485.37544  24176684.887
 129750011.146 6  24690600.156   101103950.41143  24690613.586
 120445992.399 6  22920092.219    93854025.91244  22920104.242
 108503171.998 8  20647446.852    84547943.73347  20647454.773
 114835577.049 7  21852483.258    89482315.91945  21852491.297
 18  3  9  0 12 30.0000000  0 10G07G11G19G28G30G15G06G01G17G13
 116288734.629 8  22129012.961    90614600.70045  22129020.941
 120146004.125 7  22863019.703    93620305.14544  22863026.688
 113169676.042 7  21535455.969    88184200.94546  21535461.723
 113326774.740 8  21565366.516    88306586.17546  21565373.617
 109081003.137 8  20757425.273    84998197.06647  20757435.363
 127011467.609 7  24169464.570    98969953.45843  24169473.430
 129650144.499 6  24671595.781   101026132.38843  24671609.504
 120459473.390 7  22922657.984    93864530.58944  22922669.773
 108479509.991 8  20642944.211    84529505.81047  20642951.664
 114824465.815 8  21850369.047    89473657.80145  21850376.734
 18  3  9  0 13  0.0000000  0 10G07G11G19G28G30G15G06G01G17G13
 116363228.333 8  22143188.602    90672647.72345  22143196.875
 120206994.124 7  22874625.586    93667829.80344  22874633.039
 113091566.727 7  21520592.055    88123336.57446  21520598.512
 113347766.268 8  21569361.195    88322943.20946  21569368.473
 109120105.632 8  20764866.344    85028666.53547  20764876.258
 126974049.236 6  24162344.453    98940796.29343  24162352.785
 129550150.143 6  24652566.414   100948214.89642  24652581.137
 120473526.463 7  22925332.320    93875481.03844  22925343.289
 108456332.170 8  20638533.695    84511445.18347  20638541.441
 114813944.345 8  21848366.727    89465459.24545  21848374.824
 18  3  9  0 13 30.0000000  0 10G07G11G19G28G30G15G06G01G17G13
 116438085.116 8  22157433.938    90730977.65845  22157441.918
 120268469.653 7  22886324.703    93715732.79844  22886331.277
 113013879.053 7  21505808.977    88062800.74546  21505814.848
 113368778.755 8  21573359.945    88339316.56546  21573366.402
 109159639.830 8  20772389.398    85059472.40447  20772399.313
 126937112.043 6  24155315.672    98912014.08143  24155323.887
 129450030.115 6  24633515.766   100870199.52043  24633528.316
 120488151.374 7  22928115.344    93886877.06145  22928126.430
 108433637.282 8  20634215.023    84493760.86747  20634222.711
 114804012.316 8  21846477.039    89457720.00245  21846484.492
 18  3  9  0 14  0.0000000  0 10G07G11G19G28G30G15G06G01G17G13
 116513303.913 8  22171747.289    90789589.67245  22171755.270
 120330428.649 7  22898114.836    93764012.52144  22898121.527
 112936615.136 7  21491106.227    88002595.12246  21491111.805
 113389812.148 8  21577362.484    88355706.21546  21577369.352
 109199605.935 8  20779994.328    85090614.80547  20780004.828
 126900656.970 6  24148378.508    98883607.52143  24148386.547
 129349787.131 6  24614438.438   100792088.21843  24614452.867
 120503348.402 7  22931007.367    93898718.91545  22931018.629
 108411425.272 8  20629988.219    84476452.81847  20629995.672
 114794669.767 8  21844698.781    89450440.08545  21844706.527
 18  3  9  0 14 30.0000000  0 10G07G11G19G28G30G15G06G01G17G13
 116588884.022 8  22186129.172    90848483.23245  22186137.680
 120392869.585 7  22909996.922    93812667.79344  22910003.789
 112859776.465 7  21476484.070    87942720.86046  21476490.293
 113410866.108 8  21581368.461    88372111.89346  21581375.621
 109240004.031 8  20787682.000    85122093.83647  20787692.090
 126864684.836 6  24141533.055    98855577.27743  24141541.152
 129249423.542 5  24595340.781   100713882.98842  24595354.094
 120519117.833 7  22934008.188    93911006.79544  22934019.098
 108389695.984 8  20625853.289    84459520.91047  20625861.152
 114785916.766 8  21843033.688    89443619.56145  21843040.848
 18  3  9  0 15  0.0000000  0 10G07G11G19G28G30G15G06G01G17G13
 116664824.285 8  22200580.813    90907657.43145  22200588.207
 120455790.251 7  22921970.219    93861696.86844  22921976.617
 112783364.438 7  21461943.555    87883179.04646  21461949.133
 113431940.061 8  21585378.867    88388533.15546  21585386.379
 109280833.914 8  20795451.719    85153909.31847  20795462.102
 126829195.960 6  24134779.281    98827923.61343  24134787.848
 129148941.810 6  24576219.164   100635585.70543  24576232.711
 120535459.418 7  22937117.750    93923740.51244  22937128.191
 108368448.684 8  20621809.852    84442964.58447  20621817.305
 114777752.919 8  21841479.891    89437258.11845  21841487.109
 18  3  9  0 15 30.0000000  0 10G07G11G19G28G30G15G06G01G17G13
 116741123.553 7  22215099.523    90967111.37945  22215107.914
 120519188.848 7  22934034.719    93911098.36644  22934041.410
 112707380.952 7  21447484.117    87823971.16046  21447490.164
 113453034.331 8  21589393.055    88404970.24246  21589400.156
 109322095.730 8  20803304.078    85186061.36747  20803313.934
 126794191.404 6  24128118.188    98800647.34743  24128126.578
 129048344.619 6  24557075.852   100557198.42243  24557089.988
 120552373.499 7  22940336.336    93936920.31545  22940347.070
 108347683.320 8  20617858.313    84426783.78347  20617866.117
 114770178.350 7  21840037.961    89431355.84745  21840046.000
 18  3  9  0 16  0.0000000  0 10G07G11G19G28G30G15G06G01G17G13
 116817781.317 8  22229687.031    91026844.66445  22229695.363
 120583063.399 7  22946189.625    93960870.73144  22946196.785
 112631827.893 7  21433106.828    87765098.66246  21433112.758
 113474148.851 8  21593411.102    88421423.11846  21593417.969
 109363789.850 8  20811237.914    85218550.27347  20811248.063
 126759671.760 6  24121548.539    98773748.93443  24121558.102
 128947634.682 5  24537910.352   100478723.33743  24537924.957
 120569860.397 7  22943663.945    93950546.47145  22943675.148
 108327400.105 8  20613998.680    84410978.69747  20614006.543
 114763193.024 7  21838709.250    89425912.73445  21838716.645
 18  3  9  0 16 30.0000000  0 10G07G11G19G28G30G15G06G01G17G13
 116894796.103 8  22244343.336    91086856.16345  22244351.023
 120647411.711 7  22958434.180    94011012.24744  22958441.691
 112556706.234 7  21418811.531    87706562.32846  21418817.813
 113495282.887 8  21597432.969    88437891.19346  21597439.777
 109405915.784 8  20819254.172    85251375.66747  20819264.145
 126725637.643 6  24115073.156    98747228.84543  24115081.430
 128846814.315 6  24518726.664   100400162.11843  24518740.152
 120587919.774 7  22947100.883    93964618.73545  22947111.734
 108307597.751 8  20610230.297    84395548.29647  20610237.926
 114756796.551 8  21837492.320    89420928.46545  21837499.715
 18  3  9  0 17  0.0000000  0 10G07G11G19G28G30G15G06G01G17G13
 116972166.875 7  22259066.133    91147145.04645  22259074.406
 120712232.084 7  22970769.047    94061521.62544  22970775.914
 112482017.811 7  21404598.500    87648363.58246  21404604.898
 113516436.414 7  21601458.219    88454374.46146  21601465.379
 109448473.628 8  20827352.664    85284537.60647  20827362.871
 126692089.657 6  24108689.727    98721087.52844  24108697.355
 128745885.974 6  24499520.039   100321516.81343  24499533.703
 120606551.669 7  22950645.844    93979137.08845  22950657.047
 108288275.819 8  20606553.633    84380492.26147  20606561.145
 114750988.656 7  21836386.602    89416402.82545  21836394.348
 18  3  9  0 17 30.0000000  0 10G07G11G19G28G30G15G06G01G17G13
 117049892.395 7  22273856.969    91207710.36645  22273865.066
 120777522.303 7  22983193.555    94112397.10244  22983200.363
 112407763.561 7  21390468.969    87590503.14846  21390474.898
 113537608.805 8  21605487.203    88470872.42246  21605493.895
 109491462.933 8  20835533.203    85318035.75047  20835543.469
 126659028.045 7  24102396.844    98695325.24044  24102405.879
 128644852.043 6  24480293.719   100242789.24443  24480306.914
 120625755.776 7  22954299.969    93994101.33944  22954311.992
 108269433.671 8  20602968.016    84365810.07847  20602975.586
 114745768.804 8  21835393.680    89412335.40045  21835400.957
 18  3  9  0 18  0.0000000  0 10G07G11G19G28G30G15G06G01G17G13
 117127971.874 7  22288714.227    91268551.48145  22288723.613
 120843280.214 7  22995706.977    94163637.01444  22995714.781
 112333945.603 7  21376421.633    87532982.68946  21376427.973
 113558800.233 8  21609519.672    88487385.22946  21609526.832
 109534883.990 8  20843796.055    85351870.31947  20843805.969
 126626453.538 6  24096198.422    98669942.50843  24096207.457
 128543715.269 6  24461047.477   100163981.46243  24461060.203
 120645532.347 7  22958063.633    94009511.66744  22958075.363
 108251071.363 8  20599473.680    84351501.79147  20599481.191
 114741137.304 7  21834512.352    89408726.42945  21834519.277
 18  3  9  0 18 30.0000000  0 10G07G11G19G28G30G15G06G01G17G13
 117206404.358 7  22303640.125    91329667.66345  22303648.223
 120909504.214 7  23008308.109    94215240.11544  23008316.207
 112260565.763 7  21362457.398    87475803.61146  21362463.738
 113580010.893 8  21613556.313    88503913.00546  21613562.770
 109578736.959 8  20852141.039    85386041.44947  20852151.070
 126594367.110 6  24090093.094    98644940.11543  24090101.543
 128442478.576 6  24441783.180   100085095.80843  24441795.379
 120665881.565 7  22961936.484    94025368.21145  22961947.453
 108233188.644 8  20596070.461    84337567.21947  20596078.207
 114737093.743 8  21833742.180    89405575.59545  21833750.805
 18  3  9  0 19  0.0000000  0 10G07G11G19G28G30G15G06G01G17G13
 117285188.326 7  22318631.859    91391057.72545  22318639.898
 120976191.650 7  23020999.594    94267204.34444  23021006.578
 112187624.808 8  21348577.719    87418966.53246  21348583.941
 113601239.756 8  21617595.648    88520454.97046  21617602.633
 109623021.218 8  20860567.914    85420548.65446  20860577.887
 126562768.796 6  24084080.203    98620318.06243  24084088.418
 128341143.982 5  24422499.484   100006133.92443  24422512.914
 120686802.755 7  22965917.484    94041670.44444  22965928.805
 108215784.258 8  20592758.641    84324005.36547  20592766.211
 114733637.676 8  21833084.625    89402882.54945  21833092.898
 18  3  9  0 19 30.0000000  0 10G07G11G19G28G30G15G06G01G17G13
 117364323.022 7  22333691.180    91452721.09545  22333699.043
 121043340.910 7  23033778.188    94319528.41644  23033784.762
 112115124.660 8  21334781.063    87362472.93046  21334786.992
 113622487.126 7  21621638.914    88537011.35846  21621645.664
 109667736.987 8  20869077.211    85455392.08546  20869087.184
 126531659.539 6  24078160.406    98596077.08543  24078168.797
 128239714.472 5  24403198.875    99927098.06843  24403210.898
 120708296.174 7  22970006.695    94058418.56844  22970018.133
 108198858.165 8  20589537.852    84310816.21047  20589545.480
 114730768.818 7  21832539.250    89400647.07045  21832547.172
 18  3  9  0 20  0.0000000  0 10G07G11G19G28G30G15G06G01G17G13
 117443806.973 7  22348816.680    91514656.60845  22348824.777
 121110949.541 7  23046642.008    94372210.46844  23046650.340
 112043066.449 7  21321069.188    87306323.69546  21321075.117
 113643752.683 7  21625685.359    88553581.91946  21625692.461
 109712883.851 8  20877668.359    85490571.44347  20877678.449
 126501039.601 7  24072334.117    98572217.40244  24072341.805
 128138192.417 6  24383879.656    99847990.06743  24383892.207
 120730361.423 7  22974205.969    94075612.28044  22974217.406
 108182409.524 9  20586407.625    84297999.10047  20586415.254
 114728486.595 7  21832104.797    89398868.70845  21832112.719
 18  3  9  0 20 30.0000000  0 10G07G11G19G28G30G15G06G01G17G13
 117523639.323 7  22364008.031    91576863.58745  22364015.836
 121179016.101 7  23059594.234    94425249.32144  23059602.801
 111971452.053 7  21307441.430    87250520.28846  21307447.652
 113665036.746 8  21629735.594    88570166.89846  21629743.281
 109758461.997 8  20886341.211    85526086.86647  20886351.535
 126470909.413 6  24066599.180    98548739.33943  24066608.215
 128036580.634 6  24364542.789    99768812.15743  24364556.102
 120752998.654 7  22978513.367    94093251.68244  22978524.980
 108166438.122 8  20583368.359    84285553.85947  20583376.516
 114726790.915 7  21831781.945    89397547.39345  21831789.633
 18  3  9  0 21  0.0000000  0 10G07G11G19G28G30G15G06G01G17G13
 117603819.304 7  22379265.195    91639341.45145  22379273.703
 121247538.052 7  23072634.344    94478643.02244  23072642.148
 111900282.653 8  21293898.109    87195063.63646  21293903.922
 113686338.798 8  21633789.109    88586765.89746  21633796.621
 109804471.025 8  20895096.742    85561938.04547  20895106.949
 126441269.224 6  24060960.016    98525643.07443  24060967.996
 127934881.589 5  24345191.156    99689566.28543  24345203.355
 120776207.382 7  22982930.438    94111336.40645  22982941.465
 108150943.385 9  20580420.039    84273480.04547  20580427.668
 114725681.528 8  21831570.953    89396682.91945  21831578.699
 18  3  9  0 21 30.0000000  0 10G07G11G19G28G30G15G06G01G17G13
 117684345.116 8  22394589.445    91702088.79245  22394597.426
 121316513.575 7  23085760.109    94532390.17444  23085767.973
 111829559.863 7  21280439.719    87139954.99446  21280446.000
 113707658.798 8  21637846.609    88603378.88246  21637853.945
 109850911.100 8  20903934.109    85598125.09947  20903943.906
 126412120.288 6  24055412.117    98502929.62343  24055421.035
 127833098.256 5  24325821.406    99610254.71043  24325834.074
 120799987.739 7  22987455.484    94129866.56145  22987466.512
 108135924.720 9  20577561.922    84261777.19947  20577569.727
 114725157.698 8  21831471.313    89396274.73045  21831479.176
 18  3  9  0 22  0.0000000  0 10G07G11G19G28G30G15G06G01G17G13
 117765215.383 7  22409978.836    91765104.54245  22409986.992
 121385940.085 6  23098970.719    94586488.72544  23098979.520
 111759284.370 7  21267066.906    87085194.89146  21267072.836
 113728996.405 8  21641906.445    88620005.58246  21641914.309
 109897781.461 8  20912853.102    85634647.45246  20912862.898
 126383462.198 6  24049959.172    98480598.64943  24049967.621
 127731232.692 5  24306436.766    99530879.04843  24306449.727
 120824338.891 7  22992089.344    94148841.49145  22992100.664
 108121380.912 9  20574794.523    84250444.38047  20574802.445
 114725218.801 8  21831482.922    89396322.33245  21831490.727
 18  3  9  0 22 30.0000000  0 10G07G11G19G28G30G15G06G01G17G13
 117846429.023 7  22425431.672    91828387.86545  22425440.883
 121455815.176 7  23112269.125    94640936.81743  23112275.992
 111689458.159 7  21253779.195    87030784.87646  21253785.359
 113750351.587 7  21645970.984    88636645.97346  21645977.734
 109945081.887 8  20921854.117    85671504.91546  20921864.734
 126355295.235 6  24044599.313    98458650.35043  24044607.059
 127629287.477 5  24287036.945    99451441.33943  24287050.609
 120849260.561 6  22996831.508    94168260.97444  22996843.414
 108107311.395 8  20572116.906    84239481.12247  20572124.828
 114725864.304 8  21831605.688    89396825.31445  21831613.668
 18  3  9  0 23  0.0000000  0 10G07G11G19G28G30G15G06G01G17G13
 117927985.176 7  22440952.773    91891938.06845  22440960.988
 121526137.019 7  23125651.445    94695733.04844  23125657.492
 111620082.486 7  21240577.961    86976725.93746  21240584.008
 113771724.368 8  21650037.672    88653300.07746  21650045.125
 109992812.252 8  20930937.047    85708697.39746  20930947.430
 126327620.102 6  24039332.070    98437085.30943  24039341.223
 127527265.571 5  24267623.141    99371943.82543  24267636.160
 120874752.604 7  23001682.172    94188124.89944  23001693.961
 108093715.826 9  20569529.961    84228887.18647  20569537.883
 114727093.817 8  21831839.914    89397783.36445  21831847.367
 18  3  9  0 23 30.0000000  0 10G07G11G19G28G30G15G06G01G17G13
 118009882.747 7  22456537.023    91955754.32345  22456544.945
 121596903.615 7  23139116.359    94750875.82244  23139123.988
 111551158.496 7  21227461.898    86923018.95046  21227467.887
 113793114.561 7  21654108.328    88669967.75646  21654115.195
 110040972.591 8  20940101.711    85746224.92547  20940111.918
 126300437.158 6  24034159.656    98415903.81043  24034168.105
 127425169.689 5  24248194.445    99292388.71843  24248207.465
 120900814.901 7  23006642.109    94208433.17744  23006653.430
 108080593.657 9  20567033.109    84218662.12347  20567040.680
 114728906.697 7  21832184.969    89399195.98445  21832192.598
 18  3  9  0 24  0.0000000  0 10G07G11G19G28G30G15G06G01G17G13
 118092119.634 7  22472186.492    92019834.96945  22472194.473
 121668112.587 7  23152666.773    94806363.31943  23152674.578
 111482687.320 7  21214432.359    86869664.81346  21214438.055
 113814521.811 8  21658181.492    88686648.72646  21658189.004
 110089562.195 8  20949347.742    85784086.93747  20949358.008
 126273746.647 7  24029080.188    98395106.00343  24029089.516
 127323002.16716  24228752.023    99212777.73853  24228765.980
 120927446.662 7  23011709.875    94229185.20844  23011721.840
 108067943.726 8  20564625.719    84208805.04847  20564633.113
 114731302.237 7  21832640.602    89401062.63145  21832648.406
 18  3  9  0 24 30.0000000  0 10G07G11G19G28G30G15G06G01G17G13
 118174695.397 7  22487900.125    92084179.69445  22487908.105
 121739761.773 7  23166301.109    94862193.84744  23166309.441
 111414671.062 8  21201489.227    86816665.15246  21201495.098
 113835946.605 7  21662258.781    88703343.36846  21662265.473
 110138581.264 8  20958675.859    85822283.59846  20958685.773
 126247549.115 6  24024096.172    98374692.35743  24024104.328
 127220766.14215  24209298.289    99133113.40053  24209311.191
 120954647.973 7  23016886.422    94250381.04445  23016897.391
 108055765.969 9  20562308.430    84199315.89947  20562315.824
 114734280.263 8  21833206.992    89403383.16145  21833214.738
 18  3  9  0 25  0.0000000  0 10G07G11G19G28G30G15G06G01G17G13
 118257608.466 7  22503677.953    92148787.23845  22503685.816
 121811849.004 7  23180019.672    94918365.67643  23180027.477
 111347110.456 8  21188632.875    86764020.54746  21188638.980
 113857388.586 7  21666339.297    88720051.39746  21666346.516
 110188029.088 8  20968085.305    85860814.35746  20968095.629
 126221844.201 6  24019204.461    98354662.54943  24019213.027
 127118464.005 6  24189829.813    99053397.55943  24189843.535
 120982418.018 6  23022170.211    94272020.05144  23022182.234
 108044059.204 8  20560080.453    84190193.74847  20560087.848
 114737839.775 8  21833884.227    89406156.80345  21833892.266
 18  3  9  0 25 30.0000000  0 10G07G11G19G28G30G15G06G01G17G13
 118340857.327 7  22519519.555    92213656.46345  22519527.887
 121884371.830 7  23193820.453    94974876.94644  23193826.559
 111280006.372 8  21175863.250    86711731.66746  21175868.477
 113878847.277 7  21670422.414    88736772.45446  21670429.457
 110237905.075 8  20977576.305    85899678.73946  20977586.453
 126196632.313 7  24014406.234    98335016.94043  24014415.445
 127016097.935 5  24170350.578    98973631.90743  24170364.008
 121010756.057 7  23027562.781    94294101.62444  23027574.863
 108032822.146 8  20557942.141    84181437.60247  20557949.652
 114741979.636 8  21834672.414    89409382.65445  21834680.160
 18  3  9  0 26  0.0000000  0 10G07G11G19G28G30G15G06G01G17G13
 118424441.041 7  22535424.797    92278786.58445  22535433.070
 121957328.121 7  23207703.258    95031726.03143  23207710.184
 111213360.505 7  21163181.445    86659799.84446  21163187.082
 113900323.360 7  21674509.406    88753507.06146  21674516.566
 110288209.372 8  20987149.164    85938876.88146  20987159.664
 126171914.057 7  24009702.352    98315755.96444  24009711.738
 126913671.365 5  24150858.984    98893819.09343  24150872.824
 121039662.126 7  23033064.313    94316625.83145  23033075.926
 108022054.936 8  20555893.047    84173047.58147  20555900.676
 114746699.999 8  21835570.766    89413060.84745  21835578.863
 18  3  9  0 26 30.0000000  0 10G07G11G19G28G30G15G06G01G17G13
 118508357.869 7  22551393.859    92344176.27744  22551402.484
 122030715.620 7  23221668.578    95088911.04344  23221675.973
 111147173.545 7  21150586.039    86608225.60846  21150592.086
 113921816.131 7  21678599.508    88770254.67146  21678606.375
 110338941.341 8  20996803.195    85978408.26847  20996813.344
 126147689.419 7  24005093.109    98296879.61443  24005101.734
 126811186.588 6  24131357.477    98813960.96143  24131370.379
 121069135.413 7  23038673.445    94339592.02344  23038684.004
 108011756.213 8  20553933.383    84165022.60447  20553941.012
 114751999.685 8  21836579.367    89417190.46645  21836586.879
 18  3  9  0 27  0.0000000  0 10G07G11G19G28G30G15G06G01G17G13
 118592606.882 7  22567426.008    92409824.81945  22567434.223
 122104532.313 7  23235715.883    95146430.53644  23235722.633
 111081447.818 7  21138078.711    86557010.77246  21138084.934
 113943326.122 7  21682692.891    88787015.69346  21682699.934
 110390101.007 8  21006538.586    86018272.93146  21006549.086
 126123958.854 7  24000576.867    98278388.26243  24000585.668
 126708646.674 6  24111843.539    98734059.85343  24111857.496
 121099175.778 7  23044389.000    94363000.10045  23044400.730
 108001925.928 8  20552062.805    84157362.65247  20552070.199
 114757878.202 8  21837697.570    89421771.11845  21837705.727
 18  3  9  0 27 30.0000000  0 10G07G11G19G28G30G15G06G01G17G13
 118677186.983 7  22583521.328    92475731.35845  22583529.309
 122178775.603 7  23249843.133    95204282.43444  23249850.820
 111016184.096 7  21125659.477    86506155.94146  21125665.758
 113964853.287 7  21686788.969    88803790.10446  21686796.422
 110441687.782 8  21016355.211    86058470.40846  21016365.184
 126100722.261 7  23996155.586    98260281.83144  23996163.977
 126606054.189 6  24092321.109    98654117.78543  24092334.598
 121129782.471 7  23050213.188    94386849.47745  23050224.566
 107992562.612 8  20550281.055    84150066.56747  20550288.918
 114764334.667 8  21838926.414    89426802.12045  21838934.629
 18  3  9  0 28  0.0000000  0 10G07G11G19G28G30G15G06G01G17G13
 118762096.221 7  22599678.594    92541894.34845  22599687.512
 122253442.850 7  23264052.328    95262464.68743  23264059.664
 110951383.063 7  21113328.578    86455661.64946  21113334.098
 113986397.117 8  21690888.594    88820577.50446  21690895.637
 110493700.942 8  21026252.906    86099000.12946  21026263.523
 126077979.692 7  23991827.750    98242560.35644  23991836.082
 126503411.500 6  24072789.820    98574136.58143  24072802.371
 121160954.674 7  23056145.359    94411139.52044  23056156.855
 107983665.253 9  20548587.945    84143133.57247  20548595.516
 114771368.304 8  21840264.656    89432282.86045  21840272.637
 18  3  9  0 28 30.0000000  0 10G07G11G19G28G30G15G06G01G17G13
 118847333.484 7  22615898.039    92608312.95145  22615907.484
 122328532.675 7  23278342.641    95320976.20243  23278348.629
 110887045.922 7  21101085.477    86405528.83046  21101091.230
 114007958.046 7  21694991.227    88837378.22246  21694999.031
 110546140.406 8  21036231.672    86139862.04346  21036241.996
 126055731.614 7  23987594.227    98225224.17344  23987602.969
 126400721.642 6  24053248.547    98494118.63043  24053261.098
 121192691.971 7  23062185.133    94435869.88145  23062196.277
 107975233.522 9  20546983.633    84136563.39447  20546990.617
 114778977.959 8  21841713.109    89438212.45245  21841720.797
 18  3  9  0 29  0.0000000  0 10G07G11G19G28G30G15G06G01G17G13
 118932897.359 7  22632180.820    92674986.06945  22632189.621
 122404042.075 7  23292710.828    95379814.67843  23292717.637
 110823174.216 7  21088930.859    86355758.68346  21088937.082
 114029535.930 7  21699097.656    88854192.15046  21699104.641
 110599005.625 8  21046291.688    86181055.70346  21046302.305
 126033977.713 7  23983454.945    98208273.08644  23983463.570
 126297987.339 6  24033697.828    98414066.02343  24033710.672
 121224993.753 7  23068331.484    94461040.10445  23068342.980
 107967266.227 8  20545467.039    84130355.11747  20545474.668
 114787163.066 8  21843270.695    89444590.44245  21843278.734
 18  3  9  0 29 30.0000000  0 10G07G11G19G28G30G15G06G01G17G13
 119018786.524 7  22648525.375    92741912.64344  22648534.000
 122479968.795 7  23307159.758    95438978.33844  23307166.215
 110759768.995 7  21076865.297    86306352.03746  21076870.992
 114051130.820 7  21703207.438    88871019.33546  21703214.715
 110652296.153 8  21056432.484    86222580.78646  21056442.867
 126012718.324 7  23979409.227    98191707.33144  23979417.734
 126195211.269 6  24014139.805    98333980.87543  24014153.469
 121257859.315 7  23074585.414    94486649.63844  23074596.969
 107959762.391 8  20544039.375    84124507.98147  20544046.770
 114795922.760 8  21844937.289    89451416.16445  21844945.152
 18  3  9  0 30  0.0000000  0 10G07G11G19G28G30G15G06G01G17G13
 119104999.717 7  22664931.242    92809091.72345  22664939.633
 122556310.814 7  23321685.383    95498465.59543  23321693.480
 110696831.264 7  21064888.672    86257309.66546  21064894.543
 114072742.932 8  21707319.789    88887859.93846  21707326.305
 110706011.687 8  21066654.539    86264437.03246  21066664.922
 125991953.623 7  23975457.672    98175527.03944  23975466.004
 126092396.341 6  23994575.953    98253865.43843  23994588.387
 121291288.129 7  23080946.883    94512698.07244  23080958.262
 107952721.552 9  20542699.477    84119021.62347  20542706.871
 114805256.213 8  21846714.297    89458688.97045  21846722.043
 18  3  9  0 30 30.0000000  0 10G07G11G19G28G30G15G06G01G17G13
 119191535.147 7  22681398.203    92876521.90444  22681406.770
 122633065.414 7  23336291.656    95558274.37443  23336298.934
 110634361.952 7  21053001.117    86208632.29746  21053006.988
 114094371.750 7  21711435.547    88904713.55146  21711442.414
 110760151.264 8  21076957.172    86306623.70346  21076967.379
 125971683.172 7  23971599.883    98159731.88444  23971609.035
 125989544.897 6  23975004.125    98173721.54843  23975016.207
 121325279.042 7  23087415.227    94539184.49144  23087426.488
 107946142.209 8  20541447.586    84113894.86747  20541454.922
 114815162.186 8  21848598.797    89466407.90045  21848606.719
 18  3  9  0 31  0.0000000  0 10G07G11G19G28G30G15G06G01G17G13
 119278391.861 7  22697927.055    92944202.41445  22697935.035
 122710230.393 7  23350976.594    95618402.89643  23350983.520
 110572362.428 7  21041203.195    86160320.99446  21041208.891
 114116017.518 8  21715554.422    88921580.37746  21715561.641
 110814714.621 8  21087339.977    86349140.58846  21087350.008
 125951907.177 7  23967837.109    98144322.01243  23967845.207
 125886659.986 6  23955425.055    98093551.57243  23955437.723
 121359831.562 7  23093989.992    94566108.53245  23094002.074
 107940023.573 8  20540283.164    84109127.10747  20540290.617
 114825639.752 8  21850592.805    89474572.22445  21850600.316
 18  3  9  0 31 30.0000000  0 10G07G11G19G28G30G15G06G01G17G13
 119365568.177 7  22714515.836    93012131.96544  22714524.285
 122787803.580 6  23365737.406    95678849.54543  23365745.563
 110510833.705 7  21029494.484    86112376.54847  21029500.590
 114137680.733 7  21719677.188    88938460.79746  21719684.289
 110869701.495 8  21097803.602    86391987.48446  21097814.043
 125932625.903 7  23964168.258    98129297.64343  23964176.238
 125783744.514 6  23935840.898    98013357.79143  23935853.215
 121394945.180 7  23100671.859    94593469.78944  23100683.590
 107934365.283 8  20539206.320    84104718.05847  20539214.184
 114836688.178 8  21852695.273    89483181.38045  21852702.316
 18  3  9  0 32  0.0000000  0 10G07G11G19G28G30G15G06G01G17G13
 119453062.599 7  22731165.688    93080309.38345  22731173.844
 122865782.497 7  23380577.242    95739612.29943  23380584.285
 110449776.748 8  21017875.953    86064799.71747  21017881.590
 114159361.170 7  21723802.594    88955354.64946  21723810.047
 110925111.097 8  21108347.789    86435163.78146  21108358.230
 125913839.034 7  23960593.117    98114658.53243  23960601.273
 125680801.123 6  23916251.195    97933142.26243  23916264.039
 121430618.881 7  23107460.719    94621267.47444  23107472.273
 107929165.847 9  20538216.984    84100666.55847  20538225.082
 114848306.241 8  21854906.352    89492234.40845  21854913.746
 18  3  9  0 32 30.0000000  0 10G07G11G19G28G30G15G06G01G17G13
 119540873.539 7  22747875.438    93148733.44545  22747883.828
 122944164.450 6  23395491.531    95800689.16343  23395499.277
 110389192.488 8  21006346.648    86017591.23147  21006352.695
 114181058.807 7  21727931.961    88972261.89346  21727938.652
 110980942.841 7  21118972.164    86478669.01646  21118982.137
 125895546.754 7  23957112.102    98100404.80944  23957120.727
 125577832.490 6  23896657.211    97852907.08243  23896669.352
 121466851.748 7  23114355.773    94649500.88044  23114367.387
 107924423.931 9  20537314.625    84096971.56547  20537322.137
 114860493.002 8  21857225.008    89501730.57045  21857232.637
 18  3  9  0 33  0.0000000  0 10G07G11G19G28G30G15G06G01G17G13
 119628999.806 7  22764645.664    93217403.22045  22764654.348
 123022947.330 6  23410484.828    95862078.36443  23410491.871
 110329081.951 8  20994908.141    85970751.86546  20994914.188
 114202773.724 7  21732063.883    88989182.60946  21732071.043
 111037196.294 8  21129676.891    86522502.86246  21129687.156
 125877748.950 7  23953724.813    98086536.38544  23953733.262
 125474841.597 6  23877058.805    97772654.54243  23877070.828
 121503643.132 7  23121356.422    94678169.48744  23121367.391
 107920138.801 9  20536499.039    84093632.51147  20536506.375
 114873247.247 8  21859651.688    89511668.92745  21859659.961
 18  3  9  0 33 30.0000000  0 10G07G11G19G28G30G15G06G01G17G13
 119717440.033 7  22781475.453    93286317.65545  22781483.668
 123102128.859 6  23425551.414    95923778.26643  23425559.453
 110269446.226 8  20983560.047    85924282.48647  20983565.566
 114224506.284 8  21736199.063    89006117.06246  21736206.574
 111093870.848 8  21140461.906    86566664.83646  21140471.996
 125860445.423 7  23950432.078    98073053.11344  23950441.523
 125371831.154 6  23857455.844    97692386.76843  23857468.336
 121540992.175 7  23128463.148    94707272.63144  23128474.938
 107916309.710 9  20535770.477    84090648.81047  20535778.047
 114886568.178 8  21862186.867    89522048.86645  21862194.379
 18  3  9  0 34  0.0000000  0 10G07G11G19G28G30G15G06G01G17G13
 119806192.477 7  22798364.258    93355475.36245  22798372.473
 123181706.479 6  23440695.086    95985786.77243  23440702.598
 110210286.260 8  20972302.227    85878183.82547  20972307.980
 114246256.363 8  21740338.453    89023065.16846  21740345.906
 111150965.803 7  21151326.594    86611154.39046  21151336.566
 125843635.897 7  23947234.422    98059954.79444  23947242.402
 125268803.933 6  23837850.484    97612105.90743  23837862.273
 121578897.851 7  23135676.891    94736809.53444  23135688.504
 107912935.350 9  20535128.406    84088019.44347  20535136.387
 114900454.524 8  21864829.320    89532869.38745  21864837.242
 18  3  9  0 34 30.0000000  0 10G07G11G19G28G30G15G06G01G17G13
 119895255.562 7  22815312.453    93424875.13245  22815321.078
 123261677.843 6  23455912.414    96048102.10343  23455919.984
 110151602.650 8  20961135.695    85832456.35647  20961140.746
 114268024.206 8  21744480.961    89040027.12046  21744487.828
 111208480.614 8  21162271.117    86655971.10846  21162281.734
 125827320.433 7  23944129.016    98047241.44144  23944137.758
 125165762.773 6  23818242.375    97531814.19043  23818254.516
 121617359.348 7  23142996.867    94766779.52644  23143007.426
 107910014.807 8  20534572.477    84085743.69947  20534580.398
 114914905.034 8  21867579.266    89544129.51245  21867587.188
 18  3  9  0 35  0.0000000  0 10G07G11G19G28G30G15G06G01G17G13
 119984627.951 7  22832319.273    93494515.91944  22832327.957
 123342040.368 6  23471205.570    96110722.23743  23471212.906
 110093396.649 7  20950058.742    85787101.04947  20950064.496
 114289810.291 8  21748626.633    89057003.28246  21748634.145
 111266414.695 7  21173295.914    86701114.52546  21173306.648
 125811499.048 7  23941118.453    98034913.10344  23941127.020
 125062710.558 6  23798632.430    97451513.86444  23798643.984
 121656375.780 7  23150421.203    94797181.94545  23150432.406
 107907546.975 8  20534103.016    84083820.72347  20534110.352
 114929918.930 8  21870436.469    89555828.64445  21870443.980
 18  3  9  0 35 30.0000000  0 10G07G11G19G28G30G15G06G01G17G13
 120074308.054 7  22849384.867    93564396.46744  22849393.785
 123422791.594 7  23486573.164    96173645.21943  23486579.035
 110035669.058 8  20939073.813    85742118.52647  20939079.566
 114311614.096 8  21752775.555    89073993.25746  21752782.363
 111324767.283 8  21184399.781    86746584.05546  21184410.047
 125796171.375 7  23938201.367    98022969.45644  23938210.285
 124959649.957 6  23779020.047    97371206.98644  23779032.246
 121695946.058 7  23157950.766    94828015.92844  23157961.793
 107905530.534 8  20533719.344    84082249.47647  20533727.090
 114945494.488 8  21873400.445    89567965.43445  21873407.898
 18  3  9  0 36  0.0000000  0 10G07G11G19G28G30G15G06G01G17G13
 120164294.378 7  22866508.367    93634515.62845  22866517.578
 123503929.274 7  23502012.578    96236869.38043  23502019.387
 109978420.651 8  20928179.719    85697509.39047  20928186.000
 114333435.895 8  21756927.977    89090997.25446  21756935.195
 111383537.685 8  21195583.992    86792379.15946  21195594.434
 125781337.058 7  23935378.898    98011410.25544  23935387.875
 124856583.828 6  23759407.172    97290895.79644  23759419.605
 121736069.186 7  23165586.414    94859280.69344  23165597.324
 107903964.705 8  20533421.375    84081029.35347  20533428.828
 114961630.555 8  21876471.063    89580538.97145  21876478.926
 18  3  9  0 36 30.0000000  0 10G07G11G19G28G30G15G06G01G17G13
 120254585.328 7  22883690.719    93704872.16445  22883699.461
 123585450.780 6  23517524.977    96300392.64743  23517532.781
 109921652.673 7  20917376.773    85653274.62047  20917382.645
 114355276.062 8  21761084.477    89108015.55446  21761091.344
 111442725.332 8  21206846.719    86838499.38246  21206857.453
 125766996.087 7  23932649.156    98000235.45444  23932658.777
 124753515.140 6  23739793.891    97210582.64744  23739805.680
 121776744.289 7  23173325.336    94890975.56444  23173337.887
 107902848.271 9  20533208.734    84080159.40947  20533216.773
 114978326.214 8  21879647.852    89593548.56545  21879655.949
 18  3  9  0 37  0.0000000  0 10G07G11G19G28G30G15G06G01G17G13
 120345179.531 7  22900930.484    93775465.01544  22900938.113
 123667353.589 6  23533110.391    96364213.00843  23533117.902
 109865365.811 8  20906666.031    85609414.74347  20906671.258
 114377134.863 8  21765244.078    89125048.38246  21765250.828
 111502329.603 8  21218188.945    86884944.25046  21218198.977
 125753148.399 7  23930014.172    97989445.05544  23930022.973
 124650446.750 6  23720180.477    97130269.72044  23720193.027
 121817970.424 7  23181170.383    94923099.84044  23181182.816
 107902180.126 9  20533081.922    84079638.78147  20533089.492
 114995580.018 8  21882930.906    89606993.08045  21882939.004
 18  3  9  0 37 30.0000000  0 10G07G11G19G28G30G15G06G01G17G13
 120436074.974 7  22918226.875    93846292.58844  22918235.324
 123749635.087 7  23548768.383    96428328.44443  23548775.836
 109809560.607 8  20896046.648    85565930.17446  20896052.461
 114399011.949 8  21769407.016    89142095.45846  21769413.648
 111562349.540 8  21229610.094    86931713.01646  21229620.184
 125739793.634 7  23927473.445    97979038.75344  23927481.895
 124547381.300 6  23700566.953    97049959.05143  23700580.793
 121859746.241 7  23189121.547    94955652.39244  23189132.633
 107901958.794 9  20533039.313    84079466.31947  20533047.410
 115013390.614 7  21886320.570    89620871.45345  21886328.375
 18  3  9  0 38  0.0000000  0 10G07G11G19G28G30G15G06G01G17G13
 120527270.429 7  22935580.758    93917353.95144  22935589.031
 123832293.328 6  23564498.289    96492737.42843  23564505.508
 109754237.918 8  20885519.258    85522821.60446  20885524.836
 114420907.896 7  21773573.445    89159157.22746  21773580.430
 111622784.610 8  21241110.672    86978805.26946  21241121.113
 125726931.036 7  23925025.898    97969015.95444  23925034.230
 124444321.841 6  23680956.188    96969653.04844  23680968.680
 121902070.868 7  23197175.063    94988632.64344  23197186.383
 107902183.705 9  20533082.461    84079641.58047  20533089.855
 115031756.888 7  21889815.398    89635182.81945  21889823.027
 18  3  9  0 38 30.0000000  0 10G07G11G19G28G30G15G06G01G17G13
 120618764.348 7  22952992.000    93988647.87744  22953000.332
 123915325.840 6  23580298.547    96557438.07543  23580305.941
 109699399.143 8  20875083.477    85480090.10646  20875089.523
 114442823.111 8  21777743.172    89176234.00946  21777750.859
 111683634.129 8  21252689.773    87026220.46446  21252700.508
 125714560.769 7  23922671.773    97959376.79144  23922680.223
 124341271.300 6  23661346.031    96889353.98844  23661358.816
 121944943.307 7  23205333.781    95022039.73844  23205344.340
 107902853.475 9  20533209.820    84080163.48547  20533217.273
 115050677.383 8  21893415.898    89649926.05245  21893423.996
 18  3  9  0 39  0.0000000  0 10G07G11G19G28G30G15G06G01G17G13
 120710555.192 7  22970458.531    94060173.18344  22970467.098
 123998730.003 6  23596169.531    96622428.31743  23596176.457
 109645044.660 8  20864740.234    85437735.97847  20864745.461
 114464757.601 7  21781917.641    89193325.80546  21781924.742
 111744897.391 8  21264347.508    87073958.04346  21264358.184
 125702682.645 7  23920411.938    97950121.09844  23920420.152
 124238232.551 6  23641738.570    96809064.13144  23641750.887
 121988362.468 7  23213596.055    95055872.84344  23213606.496
 107903966.968 9  20533421.438    84081031.14647  20533429.301
 115070150.841 8  21897121.867    89665100.16445  21897129.848
 18  3  9  0 39 30.0000000  0 10G07G11G19G28G30G15G06G01G17G13
 120802641.092 7  22987982.586    94131928.39344  22987991.504
 124082502.909 6  23612110.250    96687705.90943  23612118.113
 109591174.970 8  20854489.031    85395759.60747  20854494.902
 114486711.322 8  21786095.242    89210432.59846  21786102.578
 111806573.330 7  21276084.313    87122017.20146  21276094.871
 125691295.743 7  23918244.109    97941248.18744  23918253.262
 124135208.251 6  23622133.320    96728785.52144  23622146.105
 122032326.941 7  23221962.078    95090130.88244  23221973.457
 107905522.561 8  20533717.875    84082243.30447  20533725.680
 115090175.625 8  21900932.328    89680703.87645  21900939.781
 18  3  9  0 40  0.0000000  0 10G07G11G19G28G30G15G06G01G17G13
 120895020.553 7  23005561.813    94203912.34544  23005570.613
 124166642.571 6  23628121.992    96753269.26143  23628129.680
 109537791.205 8  20844330.758    85354161.88947  20844336.043
 114508684.531 8  21790276.531    89227554.57746  21790283.691
 111868661.330 7  21287899.750    87170397.44246  21287909.605
 125680400.122 7  23916171.266    97932758.09244  23916179.246
 124032201.404 6  23602531.711    96648520.49944  23602544.438
 122076835.644 7  23230432.445    95124812.98344  23230443.180
 107907519.292 8  20534097.766    84083799.20247  20534104.809
 115110750.731 8  21904847.703    89696736.40545  21904855.156
 18  3  9  0 40 30.0000000  0 10G07G11G19G28G30G15G06G01G17G13
 120987691.973 7  23023196.945    94276123.79444  23023205.629
 124251146.164 6  23644202.859    96819116.16743  23644210.137
 109484893.811 8  20834264.656    85312943.14947  20834269.883
 114530677.786 8  21794462.211    89244692.16146  21794469.020
 111931160.552 7  21299792.320    87219098.11346  21299803.465
 125669995.464 7  23914190.938    97924650.56244  23914199.621
 123929214.923 6  23582934.516    96568271.34044  23582946.949
 122121887.456 7  23239005.156    95159918.28944  23239016.125
 107909955.962 9  20534561.586    84085697.91347  20534569.156
 115131874.328 8  21908866.742    89713196.34145  21908875.191
 18  3  9  0 41  0.0000000  0 10G07G11G19G28G30G15G06G01G17G13
 121080653.621 7  23040885.875    94348561.40644  23040894.910
 124336011.191 6  23660352.023    96885244.77343  23660359.594
 109432483.631 8  20824291.180    85272104.06847  20824296.699
 114552691.206 8  21798650.953    89261845.47546  21798658.348
 111994070.127 8  21311763.711    87268118.53846  21311774.504
 125660081.038 7  23912304.305    97916925.02844  23912313.164
 123826251.659 6  23563341.547    96488040.27744  23563353.219
 122167481.063 7  23247681.109    95195445.76244  23247692.137
 107912831.269 8  20535108.797    84087938.41747  20535116.074
 115153544.953 8  21912991.008    89730082.52145  21912998.988
 18  3  9  0 41 30.0000000  0 10G07G11G19G28G30G15G06G01G17G13
 121173903.560 7  23058631.203    94421223.65444  23058640.297
 124421234.992 6  23676568.797    96951652.92543  23676576.777
 109380560.981 8  20814410.500    85231644.87447  20814416.313
 114574724.337 8  21802843.844    89279014.14746  21802850.887
 112057389.059 8  21323813.828    87317457.93546  21323823.625
 125650656.350 7  23910511.570    97909581.11544  23910519.375
 123723314.266 6  23543753.258    96407829.35743  23543765.574
 122213615.124 7  23256458.859    95231394.37244  23256471.527
 107916143.739 9  20535738.742    84090519.57547  20535747.074
 115175761.300 8  21917218.836    89747393.94045  21917226.758
 18  3  9  0 42  0.0000000  0 10G07G11G19G28G30G15G06G01G17G13
 121267440.030 7  23076430.867    94494109.19144  23076439.375
 124506815.021 6  23692856.016    97018338.60843  23692862.414
 109329126.441 8  20804622.898    85191566.02247  20804628.301
 114596777.936 8  21807040.188    89296198.76846  21807047.172
 112121116.359 8  21335940.086    87367115.55946  21335950.410
 125641720.635 7  23908810.734    97902618.21944  23908819.184
 123620405.652 6  23524170.000    96327640.87244  23524182.316
 122260288.215 7  23265341.039    95267763.01344  23265352.945
 107919892.000 8  20536452.125    84093440.30347  20536460.281
 115198521.597 8  21921549.828    89765129.22845  21921557.926
 18  3  9  0 42 30.0000000  0 10G07G11G19G28G30G15G06G01G17G13
 121361261.746 7  23094284.406    94567216.99444  23094293.207
 124592749.074 6  23709208.344    97085300.20343  23709214.918
 109278181.111 8  20794928.313    85151868.37047  20794934.066
 114618852.280 8  21811241.219    89313399.54646  21811247.852
 112185251.444 8  21348144.578    87417090.93046  21348154.434
 125633274.123 7  23907203.352    97896036.51444  23907211.977
 123517528.865 7  23504592.602    96247477.18044  23504605.270
 122307499.258 7  23274325.734    95304550.82144  23274336.996
 107924075.038 9  20537248.141    84096699.81547  20537255.711
 115221824.022 8  21925984.492    89783286.94645  21925992.238
 18  3  9  0 43  0.0000000  0 10G07G11G19G28G30G15G06G01G17G13
 121455367.138 7  23112191.633    94640545.81944  23112200.375
 124679034.172 6  23725627.031    97152535.36043  23725634.602
 109227725.503 8  20785326.953    85112552.32547  20785332.473
 114640948.051 8  21815445.820    89330617.02546  21815452.453
 112249793.553 8  21360426.602    87467383.46346  21360437.395
 125625316.078 7  23905688.555    97889835.45044  23905696.945
 123414687.069 7  23485023.313    96167340.75344  23485034.984
 122355247.148 7  23283411.688    95341756.97544  23283423.359
 107928691.679 9  20538126.516    84100297.19947  20538134.145
 115245667.837 7  21930521.656    89801866.52645  21930529.285
 18  3  9  0 43 30.0000000  0 10G07G11G19G28G30G15G06G01G17G13
 121549754.174 7  23130153.242    94714094.14544  23130161.867
 124765667.884 6  23742114.000    97220042.11243  23742120.164
 109177760.001 8  20775819.063    85073618.17647  20775824.523
 114663064.755 8  21819654.789    89347850.81046  21819661.246
 112314741.478 8  21372785.766    87517992.22146  21372796.852
 125617845.534 7  23904267.328    97884014.23744  23904276.012
 123311882.797 7  23465459.969    96087233.57544  23465472.168
 122403530.216 7  23292599.063    95379380.12244  23292610.734
 107933740.110 9  20539087.406    84104231.04647  20539095.152
 115270050.827 8  21935161.148    89820866.23945  21935169.246
 18  3  9  0 44  0.0000000  0 10G07G11G19G28G30G15G06G01G17G13
 121644421.277 7  23148167.719    94787860.65344  23148177.105
 124852647.700 6  23758664.039    97287818.57843  23758672.898
 109128285.223 8  20766404.188    85035066.41947  20766409.883
 114685203.104 7  21823867.297    89365101.46746  21823873.871
 112380094.481 8  21385221.813    87568916.62046  21385231.902
 125610862.515 7  23902938.383    97878572.90744  23902947.242
 123209119.224 7  23445904.297    96007158.09544  23445916.730
 122452347.335 7  23301888.430    95417419.42144  23301900.453
 107939219.548 9  20540130.031    84108500.74047  20540138.480
 115294971.483 7  21939903.906    89840284.91945  21939911.535
 18  3  9  0 44 30.0000000  0 10G07G11G19G28G30G15G06G01G17G13
 121739366.480 7  23166235.625    94861843.89444  23166244.016
 124939971.155 6  23775282.789    97355862.79743  23775289.188
 109079301.666 8  20757082.695    84996897.42247  20757088.215
 114707363.389 8  21828084.109    89382369.21146  21828091.387
 112445851.426 8  21397735.148    87620155.78446  21397745.414
 125604366.147 7  23901702.328    97873510.80344  23901710.367
 123106399.028 7  23426357.344    95927116.41544  23426369.719
 122501696.928 6  23311279.633    95455873.64144  23311291.246
 107945127.978 9  20541254.523    84113104.71447  20541262.211
 115320428.346 7  21944748.164    89860121.41745  21944755.969
 18  3  9  0 45  0.0000000  0 10G07G11G19G28G30G15G06G01G17G13
 121834588.335 7  23184355.578    94936042.70644  23184364.672
 125027635.197 6  23791964.898    97424172.46643  23791971.824
 109030809.710 8  20747855.180    84959111.49147  20747860.992
 114729545.565 8  21832305.891    89399654.02446  21832312.582
 112512011.246 8  21410325.102    87671708.86646  21410335.602
 125598355.522 7  23900558.836    97868827.19144  23900567.168
 123003725.043 7  23406819.789    95847110.74344  23406831.402
 122551577.448 7  23320772.086    95494741.56544  23320783.582
 107951464.099 8  20542459.945    84118041.95247  20542467.691
 115346419.577 7  21949694.258    89880374.30545  21949701.770
 18  3  9  0 45 30.0000000  0 10G07G11G19G28G30G15G06G01G17G13
 121930085.039 7  23202527.984    95010455.66144  23202536.609
 125115638.022 6  23808709.883    97492746.05343  23808717.512
 108982810.463 8  20738721.016    84921709.49147  20738726.945
 114751750.390 8  21836531.063    89416956.47746  21836537.988
 112578573.547 8  21422991.625    87723575.57546  21423002.008
 125592830.642 7  23899507.172    97864522.06944  23899515.914
 122901100.818 7  23387290.273    95767143.86544  23387302.531
 122601988.090 7  23330365.797    95534022.59744  23330375.828
 107958227.378 9  20543747.031    84123312.04047  20543754.602
 115372944.011 7  21954741.633    89901042.68845  21954749.555
 18  3  9  0 46  0.0000000  0 10G07G11G19G28G30G15G06G01G17G13
 122025855.017 7  23220752.773    95085081.59944  23220761.516
 125203976.641 6  23825521.164    97561581.31343  23825528.324
 108935304.130 8  20729680.969    84884691.57947  20729686.254
 114773978.031 8  21840761.164    89434276.71846  21840767.797
 112645536.901 8  21435734.070    87775754.79246  21435744.863
 125587790.658 7  23898548.602    97860594.80544  23898556.816
 122798528.797 7  23367771.195    95687217.64244  23367783.688
 122652926.955 7  23340058.773    95573715.18944  23340069.684
 107965415.622 9  20545115.031    84128913.27347  20545122.719
 115399999.023 7  21959889.516    89922124.49945  21959898.141
 18  3  9  0 46 30.0000000  0 10G07G11G19G28G30G15G06G01G17G13
 122121896.220 7  23239028.805    95159918.87544  23239037.313
 125292648.449 6  23842394.336    97630676.23343  23842401.320
 108888290.968 8  20720734.734    84848057.95047  20720740.313
 114796228.456 8  21844994.742    89451614.70346  21845002.020
 112712900.413 8  21448553.125    87828245.82646  21448563.391
 125583234.622 7  23897681.133    97857044.64344  23897690.285
 122696012.048 7  23348262.953    95607334.50944  23348275.387
 122704392.637 7  23349851.852    95613818.32344  23349863.348
 107973027.462 9  20546563.516    84134844.58347  20546571.262
 115427583.273 7  21965139.078    89943618.70445  21965146.941
 18  3  9  0 47  0.0000000  0 10G07G11G19G28G30G15G06G01G17G13
 122218207.155 7  23257356.445    95234966.32044  23257364.484
 125381650.857 6  23859330.789    97700028.77943  23859338.535
 108841771.379 8  20711882.258    84811808.92847  20711888.422
 114818502.839 8  21849233.305    89468971.36246  21849240.348
 112780663.084 8  21461448.172    87881047.88746  21461458.496
 125579162.065 6  23896906.023    97853871.20944  23896915.117
 122593553.527 7  23328766.016    95527496.74944  23328778.566
 122756383.689 7  23359745.820    95654330.84844  23359757.258
 107981061.574 9  20548092.594    84141104.92847  20548099.871
 115455695.378 7  21970488.516    89965524.21845  21970496.086
 18  3  9  0 47 30.0000000  0 10G07G11G19G28G30G15G06G01G17G13
 122314785.732 7  23275734.359    95310222.33944  23275743.102
 125470981.386 6  23876330.070    97769636.93943  23876337.992
 108795746.115 8  20703123.828    84775945.09547  20703129.699
 114840800.697 8  21853476.445    89486346.31146  21853483.488
 112848823.853 8  21474418.633    87934160.15346  21474429.074
 125575572.515 7  23896223.016    97851074.16444  23896231.523
 122491156.149 6  23309280.266    95447706.63044  23309292.641
 122808898.525 7  23369737.961    95695251.50744  23369749.750
 107989516.761 9  20549701.063    84147693.39147  20549708.691
 115484333.477 7  21975938.773    89987839.60545  21975945.758
 18  3  9  0 48  0.0000000  0 10G07G11G19G28G30G15G06G01G17G13
 122411630.009 6  23294162.977    95385685.37144  23294172.070
 125560636.952 6  23893390.609    97839498.42143  23893398.590
 108750215.295 8  20694459.695    84740466.54047  20694464.980
 114863122.240 8  21857724.016    89503739.71246  21857731.117
 112917381.518 8  21487464.672    87987581.69246  21487474.996
 125572465.111 7  23895632.031    97848652.79344  23895640.246
 122388822.774 7  23289807.156    95367966.38844  23289818.945
 122861935.514 7  23379832.031    95736579.00944  23379842.590
 107998391.204 8  20551390.023    84154608.54647  20551397.594
 115513495.296 7  21981487.961    90010563.08545  21981495.238
 18  3  9  0 48 30.0000000  0 10G07G11G19G28G30G15G06G01G17G13
 122508738.621 6  23312642.047    95461354.37644  23312651.551
 125650615.706 6  23910513.656    97909611.72743  23910520.699
 108705179.630 8  20685889.930    84705373.82947  20685895.273
 114885468.741 8  21861976.336    89521152.55846  21861983.613
 112986335.392 8  21500586.266    88041311.96246  21500596.883
 125569838.982 6  23895131.719    97846606.46144  23895140.813
 122286556.667 6  23270345.930    95288278.57544  23270358.539
 122915493.522 7  23390023.656    95778312.51844  23390034.391
 108007683.871 9  20553158.508    84161849.59047  20553165.844
 115543179.505 7  21987136.188    90033693.62445  21987143.992
 18  3  9  0 49  0.0000000  0 10G07G11G19G28G30G15G06G01G17G13
 122606109.807 7  23331171.539    95537227.97044  23331180.926
 125740914.864 6  23927696.773    97979974.68643  23927704.578
 108660639.476 8  20677414.297    84670667.22147  20677419.699
 114907840.297 8  21866233.656    89538584.93246  21866241.109
 113055684.429 8  21513782.719    88095350.14946  21513793.277
 125567693.340 6  23894723.516    97844934.52144  23894732.258
 122184360.831 6  23250899.094    95208645.50244  23250910.766
 122969570.896 7  23400313.391    95820450.73344  23400324.770
 108017393.342 9  20555006.016    84169415.41247  20555013.293
 115573384.273 8  21992884.242    90057229.78945  21992891.520
 18  3  9  0 49 30.0000000  0 10G07G11G19G28G30G15G06G01G17G13
 122703741.531 7  23349750.188    95613304.60644  23349759.105
 125831531.557 6  23944939.594    98050585.10443  23944948.453
 108616594.852 8  20669032.328    84636346.74947  20669038.434
 114930237.073 8  21870495.938    89556036.95646  21870502.570
 113125427.135 7  21527054.313    88149695.09146  21527064.988
 125566027.419 7  23894406.711    97843636.38944  23894415.688
 122082237.878 6  23231465.594    95129069.22544  23231478.086
 123024165.706 6  23410702.180    95862992.14544  23410714.145
 108027517.548 9  20556932.555    84177304.41047  20556940.125
 115604107.387 7  21998730.047    90081169.86545  21998738.262
 18  3  9  0 50  0.0000000  0 11G07G24G11G19G28G30G15G06G01G17G13
 122801632.419 7  23368378.680    95689583.19144  23368386.953
 133840153.125 6  25468894.445
 125922463.628 6  23962243.813    98121441.25543  23962251.324
 108573046.448 8  20660745.313    84602412.93647  20660751.418
 114952659.817 8  21874762.898    89573509.21146  21874770.000
 113195563.025 8  21540400.367    88204346.41946  21540411.629
 125564841.054 7  23894181.156    97842711.92344  23894189.605
 121980191.350 7  23212047.117    95049552.49344  23212059.375
 123079276.907 7  23421189.953    95905935.92444  23421201.625
 108038056.294 9  20558938.031    84185516.42647  20558946.012
 115635347.537 8  22004675.133    90105512.82845  22004683.641
 18  3  9  0 50 30.0000000  0 11G07G24G11G19G28G30G15G06G01G17G13
 122899780.081 6  23387055.195    95766061.86644  23387063.234
 133737315.967 6  25449325.117   104210769.42142  25449335.676
 126013707.935 6  23979607.305    98192540.69543  23979614.641
 108529994.545 8  20652553.289    84568866.01447  20652558.984
 114975108.358 8  21879033.953    89591001.57446  21879041.230
 113266090.454 7  21553821.625    88259302.84146  21553832.594
 125564132.704 6  23894045.578    97842159.96244  23894054.555
 121878223.782 7  23192643.078    94970097.31744  23192655.277
 123134902.441 7  23431776.000    95949280.47544  23431786.676
 108049006.476 9  20561021.500    84194049.04447  20561029.305
 115667102.441 7  22010718.664    90130256.88945  22010725.707
 18  3  9  0 51  0.0000000  0 11G07G24G11G19G28G30G15G06G01G17G13
 122998182.806 7  23405781.148    95842739.27644  23405789.246
 133634489.836 6  25429758.422   104130645.13742  25429769.625
 126105262.066 6  23997029.977    98263881.57443  23997036.961
 108487439.449 8  20644454.781    84535706.20947  20644460.594
 114997583.285 8  21883311.227    89608514.50046  21883318.387
 113337008.587 8  21567317.281    88314563.70246  21567327.664
 125563901.867 6  23894001.656    97841980.08444  23894010.398
 121776338.326 7  23173254.688    94890706.09744  23173266.828
 123191040.828 7  23442456.859    95993024.71344  23442469.293
 108060367.598 9  20563183.633    84202901.86547  20563191.262
 115699370.170 7  22016858.273    90155400.56245  22016866.254
 18  3  9  0 51 30.0000000  0 11G07G24G11G19G28G30G15G06G01G17G13
 123096838.830 6  23424554.641    95919614.04744  23424563.266
 133531675.871 5  25410193.313   104050530.43542  25410205.102
 126197123.270 6  24014510.453    98335461.70643  24014517.672
 108445381.211 8  20636451.625    84502933.56547  20636457.848
 115020085.110 7  21887593.375    89626048.38546  21887600.477
 113408315.929 8  21580886.336    88370127.84846  21580896.895
 125564147.321 7  23894048.859    97842171.32944  23894056.723
 121674537.749 7  23153882.859    94811381.03844  23153894.824
 123247690.156 7  23453238.258    96037167.02244  23453249.402
 108072137.466 9  20565423.180    84212073.19047  20565430.633
 115732148.674 7  22023096.203    90180942.24145  22023103.773
 18  3  9  0 52  0.0000000  0 11G07G24G11G19G28G30G15G06G01G17G13
 123195746.076 6  23443375.797    95996684.58344  23443384.598
 133428876.580 5  25390631.578
 126289288.759 6  24032049.516    98407278.99743  24032056.324
 108403819.638 8  20628542.648    84470547.93947  20628548.109
 115042614.234 8  21891880.828    89643603.53046  21891887.285
 113480011.452 8  21594529.711    88425994.47646  21594540.035
 125564868.180 7  23894186.469    97842733.03644  23894195.563
 121572825.056 7  23134527.523    94732124.42944  23134539.664
 123304848.766 7  23464115.031    96081706.19444  23464126.176
 108084314.622 9  20567740.523    84221561.89147  20567748.270
 115765436.208 7  22029430.273    90206880.56445  22029438.313
 18  3  9  0 52 30.0000000  0 11G07G24G11G19G28G30G15G06G01G17G13
 123294902.650 7  23462244.766    96073949.39944  23462253.801
 133326093.719 6  25371071.797
 126381755.995 5  24049644.328    98479331.36343  24049652.191
 108362755.691 8  20620728.453    84438550.06247  20620733.680
 115065171.058 7  21896172.797    89661180.26746  21896179.898
 113552093.896 7  21608246.273    88482162.60046  21608256.598
 125566063.615 7  23894413.586    97843664.53044  23894422.211
 121471203.308 7  23115189.320    94652938.70044  23115201.754
 123362514.988 6  23475087.805    96126640.90144  23475100.063
 108096897.717 9  20570135.023    84231366.89947  20570142.652
 115799230.754 7  22035861.250    90233213.95845  22035868.703
 18  3  9  0 53  0.0000000  0 11G07G24G11G19G28G30G15G06G01G17G13
 123394306.809 7  23481161.633    96151407.15244  23481169.613
 133223329.272 5  25351516.484   103810257.20952  25351526.047
 126474522.989 6  24067296.969    98551617.33943  24067305.477
 108322189.591 8  20613008.969    84406940.12647  20613014.605
 115087756.153 8  21900470.664    89678779.03946  21900477.648
 113624562.310 8  21622036.789    88538631.47446  21622046.996
 125567733.000 7  23894731.438    97844965.34144  23894739.652
 121369675.585 7  23095869.172    94573826.22444  23095881.195
 123420687.226 7  23486157.570    96171969.91744  23486169.535
 108109885.235 9  20572606.570    84241487.04747  20572614.316
 115833529.995 7  22042388.727    90259940.62045  22042396.531
 18  3  9  0 53 30.0000000  0 11G07G24G11G19G28G30G15G06G01G17G13
 123493956.756 7  23500123.688    96229056.43344  23500132.547
 133120585.312 5  25331965.969   103730196.96442  25331975.824
 126567586.328 6  24085005.906    98624134.22043  24085014.531
 108282121.202 8  20605384.273    84375718.01647  20605390.145
 115110369.691 7  21904774.008    89696399.96246  21904781.168
 113697415.323 8  21635900.242    88595400.03646  21635911.035
 125569874.934 7  23895139.453    97846634.36444  23895147.844
 121268244.854 7  23076567.531    94494789.32944  23076579.203
 123479363.611 7  23497323.242    96217691.76644  23497335.090
 108123275.594 9  20575154.625    84251921.09647  20575162.254
 115868332.217 7  22049011.195    90287059.21745  22049018.648
 18  3  9  0 54  0.0000000  0 11G07G24G11G19G28G30G15G06G01G17G13
 123593850.885 7  23519132.508    96306895.99244  23519141.719
 133017863.692 5  25312418.266   103650154.12342  25312429.469
 126660943.449 6  24102772.148    98696880.01143  24102780.480
 108242550.788 8  20597854.063    84344883.93447  20597859.875
 115133012.175 7  21909082.570    89714043.45246  21909089.789
 113770651.817 8  21649836.844    88652467.41146  21649846.758
 125572488.692 6  23895636.266    97848671.04144  23895645.418
 121166914.157 7  23057284.750    94415830.38544  23057297.242
 123538542.488 7  23508585.563    96263805.19544  23508596.648
 108137067.312 9  20577779.172    84262667.89347  20577786.918
 115903635.193 7  22055729.008    90314568.01245  22055736.520
 18  3  9  0 54 30.0000000  0 11G07G24G11G19G28G30G15G06G01G17G13
 123693986.781 7  23538188.422    96384923.92244  23538197.105
 132915166.515 5  25292875.336   103570130.34242  25292887.125
 126754591.895 6  24120592.734    98769852.85143  24120600.891
 108203478.451 8  20590419.320    84314437.97047  20590424.488
 115155684.207 7  21913397.320    89731709.96346  21913404.539
 113844270.486 7  21663845.656    88709832.58746  21663856.391
 125575573.298 7  23896223.484    97851074.63544  23896231.758
 121065686.456 6  23038022.383    94336951.70744  23038034.113
 123598221.915 7  23519942.898    96310308.64144  23519953.105
 108151258.324 9  20580479.320    84273725.82747  20580487.242
 115939436.878 7  22062541.625    90342465.41945  22062549.195
 18  3  9  0 55  0.0000000  0 11G07G24G11G19G28G30G15G06G01G17G13
 123794362.687 7  23557288.563    96463138.86243  23557298.008
 132812496.416 5  25273337.547   103490127.68742  25273349.629
 126848529.324 6  24138468.977    98843050.83943  24138476.195
 108164904.657 8  20583078.719    84284380.48047  20583084.590
 115178386.473 7  21917716.664    89749400.02746  21917724.410
 113918270.316 8  21677927.273    88767494.76846  21677938.066
 125579127.881 7  23896899.625    97853844.44144  23896908.367
 120964564.955 6  23018779.367    94258155.76844  23018790.922
 123658400.387 6  23531392.227    96357200.99344  23531404.777
 108165847.997 9  20583255.773    84285094.40647  20583263.637
 115975735.563 7  22069449.688    90370750.08745  22069457.023
 18  3  9  0 55 30.0000000  0 11G07G24G11G19G28G30G15G06G01G17G13
 123894976.358 7  23576434.898    96541539.09344  23576444.051
 132709853.983 5  25253806.453   103410146.60152  25253818.125
 126942752.871 6  24156398.836    98916471.75643  24156406.523
 108126828.863 8  20575833.109    84254711.04147  20575838.453
 115201118.803 8  21922042.461    89767113.51945  21922049.738
 113992649.499 7  21692081.430    88825452.55146  21692092.574
 125583150.710 7  23897664.734    97856979.10344  23897674.238
 120863552.193 6  22999557.156    94179444.56944  22999569.004
 123719075.558 7  23542939.523    96404480.28544  23542951.488
 108180833.210 9  20586107.477    84296771.20447  20586115.223
 116012528.560 7  22076450.656    90399419.93745  22076458.285
 18  3  9  0 56  0.0000000  0 12G07G24G11G19G28G30G15G06G02G01G17G13
 123995826.525 7  23595626.609    96620123.59344  23595635.234
 132607242.318 5  25234279.406   103330189.54442  25234291.488
 127037259.569 6  24174383.352    98990113.34143  24174390.629
 108089251.636 8  20568682.234    84225430.09547  20568688.398
 115223882.074 8  21926374.453    89784851.11946  21926381.730
 114067407.205 7  21706307.117    88883705.28446  21706318.027
 125587641.507 7  23898520.133    97860478.42244  23898528.172
 120762651.596 7  22980356.367    94100820.76344  22980367.629
 132842143.50315  25279020.563
 123780245.946 6  23554580.531    96452145.53744  23554591.500
 108196213.211 9  20589034.086    84308755.61847  20589041.773
 116049813.986 7  22083545.875    90428473.50045  22083553.504
 18  3  9  0 56 30.0000000  0 12G07G24G11G19G28G30G15G06G02G01G17G13
 124096911.148 7  23614862.234    96698890.79644  23614871.328
 132504663.26515  25214759.797   103250257.77752  25214770.824
 127132047.012 6  24192419.820    99063973.66643  24192428.211
 108052173.141 8  20561626.500    84196537.76447  20561632.488
 115246676.943 7  21930712.297    89802613.34445  21930718.930
 114142542.238 7  21720605.219    88942252.03346  21720615.895
 125592599.087 7  23899463.273    97864341.46644  23899471.605
 120661866.239 7  22961177.547    94022286.76345  22961189.863
 132742375.571 5  25260035.367   103435654.12252  25260043.641
 123841909.820 6  23566313.477    96500195.31244  23566325.793
 108211986.651 9  20592035.711    84321046.61647  20592043.281
 116087590.024 8  22090734.531    90457909.35745  22090742.395
 18  3  9  0 57  0.0000000  0 12G07G24G11G19G28G30G15G06G02G01G17G13
 124198228.379 7  23634142.070    96777839.24244  23634151.164
 132402119.22215  25195245.906
 127227112.759 6  24210510.281    99138050.88243  24210518.555
 108015593.274 8  20554665.258    84168033.97547  20554671.598
 115269503.792 7  21935055.461    89820400.49946  21935062.914
 114218053.272 8  21734974.445    89001091.78346  21734985.180
 125598022.410 7  23900495.313    97868567.41644  23900503.527
 120561199.193 7  22942022.070    93943844.95145  22942032.980
 132642506.913 5  25241030.391   103357834.92042  25241040.070
 123904065.253 7  23578141.773    96548628.09944  23578153.035
 108228151.989 9  20595111.977    84333642.99247  20595119.547
 116125854.160 8  22098015.703    90487725.54745  22098024.035
 18  3  9  0 57 30.0000000  0 12G07G24G11G19G28G30G15G06G02G01G17G13
 124299775.882 7  23653465.742    96856967.13244  23653475.305
 132299611.55615  25175738.797
 127322453.863 6  24228652.242    99212342.67043  24228661.219
 107979512.213 8  20547799.828    84139918.87247  20547805.523
 115292362.862 7  21939405.961    89838212.75845  21939413.121
 114293938.705 7  21749414.750    89060223.27246  21749425.660
 125603909.861 7  23901615.938    97873155.02644  23901624.035
 120460653.154 6  22922888.328    93865497.43145  22922899.531
 132542540.69815  25222009.086
 123966710.085 6  23590063.039    96597442.25844  23590074.301
 108244706.632 9  20598261.766    84346542.71447  20598269.863
 116164604.169 7  22105389.398    90517920.33445  22105397.262
 18  3  9  0 58  0.0000000  0 12G07G24G11G19G28G30G15G06G02G01G17G13
 124401551.294 7  23672832.992    96936272.59744  23672842.438
 132197142.59015  25156240.148
 127418067.418 6  24246848.891    99286846.74043  24246855.699
 107943929.339 8  20541028.672    84112191.96447  20541033.957
 115315254.756 7  21943762.320    89856050.58046  21943769.363
 114370197.094 7  21763926.328    89119645.37046  21763937.063
 125610260.589 7  23902824.820    97878103.62944  23902832.508
 120360231.025 6  22903778.109    93787246.46445  22903789.430
 132442476.44815  25202963.352   103201965.98452  25202975.082
 124029842.258 7  23602076.727    96646636.16844  23602087.871
 108261649.162 9  20601486.156    84359744.69047  20601493.668
 116203837.807 7  22112856.039    90548491.98845  22112863.844
 18  3  9  0 58 30.0000000  0 12G07G24G11G19G28G30G15G06G02G01G17G13
 124503553.410 7  23692243.844    97015754.72944  23692252.527
 132094714.34615  25136748.930   102930817.10152  25136760.367
 127513951.556 6  24265093.891    99361561.64443  24265101.871
 107908845.201 8  20534352.117    84084853.67947  20534358.047
 115338180.206 7  21948124.414    89873914.57045  21948132.336
 114446827.455 7  21778508.445    89179357.32346  21778518.828
 125617073.281 7  23904119.695    97883412.22944  23904129.141
 120259936.290 6  22884691.969    93709094.75744  22884704.520
 132342319.23815  25183910.039
 124093460.300 6  23614182.758    96696208.66344  23614194.254
 108278978.261 9  20604783.688    84373247.89247  20604791.785
 116243553.176 8  22120413.617    90579439.00245  22120421.598
 18  3  9  0 59  0.0000000  0 12G07G24G11G19G28G30G15G06G02G01G17G13
 124605780.102 7  23711696.641    97095411.82544  23711705.559
 131992329.57615  25117265.672   102851036.77453  25117276.348
 127610102.948 6  24283390.945    99436484.85243  24283398.457
 107874259.739 8  20527770.883    84057903.97947  20527776.461
 115361139.772 7  21952493.859    89891805.13646  21952500.551
 114523828.393 7  21793161.477    89239358.03946  21793171.977
 125624347.149 7  23905504.461    97889080.15744  23905513.379
 120159771.844 6  22865632.273    93631044.58244  22865644.414
 132242069.982 4  25164825.633   103045803.51152  25164838.477
 124157562.104 7  23626380.906    96746158.11244  23626392.344
 108296692.130 9  20608154.313    84387050.91447  20608162.352
 116283747.751 8  22128062.258    90610759.43545  22128070.238
 18  3  9  0 59 30.0000000  0 12G07G24G11G19G28G30G15G06G02G01G17G13
 124708229.282 7  23731192.102    97175242.31644  23731201.313
 131889989.92415  25097790.391   102771291.59552  25097802.531
 127706519.365 6  24301739.586    99511614.50743  24301745.926
 107840172.957 8  20521284.359    84031342.85247  20521289.703
 115384134.045 8  21956869.586    89909722.73545  21956876.629
 114601198.609 7  21807884.484    89299646.49846  21807895.395
 125632080.939 7  23906975.906    97895106.46644  23906984.531
 120059740.804 6  22846596.344    93553098.36344  22846608.602
 132141732.94815  25145736.688
 124222145.832 7  23638670.922    96796483.07744  23638681.715
 108314789.330 9  20611598.336    84401152.63247  20611606.141
 116324419.651 8  22135801.602    90642451.80645  22135809.582
 18  3  9  1  0  0.0000000  0 12G07G24G11G19G28G30G15G06G02G01G17G13
 124810899.154 7  23750729.297    97255244.75144  23750738.977
 131787697.54615  25078324.234
 127803198.035 6  24320135.695    99586948.57943  24320143.617
 107806584.817 8  20514892.781    84005170.28547  20514898.242
 115407163.393 7  21961252.156    89927667.68245  21961259.316
 114678936.750 7  21822677.875    89360221.64346  21822688.434
 125640273.595 7  23908535.820    97901490.34744  23908544.270
 119959846.296 6  22827587.367    93475258.52744  22827598.922
 132041305.63615  25126626.914
 124287209.487 7  23651052.234    96847182.00744  23651063.145
 108333268.091 9  20615114.859    84415551.67547  20615122.664
 116365566.334 7  22143631.563    90674514.13345  22143639.309
 18  3  9  1  0 30.0000000  0 11G07G24G11G19G28G30G15G06G01G17G13
 124913787.591 7  23770308.539    97335417.54743  23770317.984
 131685454.26815  25058868.445
 127900136.235 6  24338581.781    99662484.82742  24338589.703
 107773495.271 8  20508595.930    83979386.23047  20508601.391
 115430228.255 7  21965640.609    89945640.29045  21965648.004
 114757041.195 7  21837540.977    89421082.23246  21837551.066
 125648923.305 7  23910181.031    97908230.37344  23910190.594
 119860091.073 6  22808604.164    93397527.21945  22808616.656
 124352750.862 7  23663525.281    96898253.20844  23663535.371
 108352126.611 9  20618703.414    84430246.62247  20618711.219
 116407185.381 7  22151551.398    90706944.53345  22151559.145
 18  3  9  1  1  0.0000000  0 12G07G24G11G19G28G30G15G06G02G01G17G13
 125016892.274 7  23789929.219    97415758.83743  23789938.078
 131583262.636 5  25039422.602   102532283.38642  25039433.688
 127997331.152 6  24357078.836    99738221.19943  24357085.645
 107740903.719 8  20502393.938    83953990.22747  20502399.457
 115453329.184 8  21970037.281    89963641.01245  21970044.148
 114835510.389 7  21852472.734    89482227.03946  21852483.469
 125658028.998 7  23911914.086    97915325.71544  23911922.301
 119760478.116 7  22789648.594    93319906.76945  22789660.324
 131840192.20115  25088349.711
 124418767.835 7  23676086.109    96949695.02544  23676098.426
 108371362.880 9  20622364.117    84445235.92947  20622371.629
 116449274.319 7  22159560.594    90739741.09145  22159568.750
 18  3  9  1  1 30.0000000  0 12G07G24G11G19G28G30G15G06G02G01G17G13
 125120211.699 7  23809589.281    97496267.45643  23809598.844
 131481124.221 5  25019985.992   102452695.06242  25019997.723
 128094780.245 6  24375620.555    99814155.54842  24375630.234
 107708810.374 8  20496286.641    83928982.43447  20496292.336
 115476466.889 8  21974440.297    89981670.37845  21974446.695
 114914343.113 7  21867474.102    89543655.11146  21867484.895
 125667589.524 7  23913733.523    97922775.47644  23913741.973
 119661010.604 7  22770720.891    93242399.64844  22770732.621
 131739519.64716  25069196.352
 124485258.610 7  23688739.883    97001506.00844  23688751.262
 108390975.217 9  20626096.258    84460518.27247  20626104.063
 116491831.218 7  22167659.117    90772902.29445  22167666.805
 18  3  9  1  2  0.0000000  0 12G07G24G11G19G28G30G15G06G02G01G17G13
 125223743.707 7  23829291.469    97576941.70943  23829300.855
 131379041.443 5  25000559.266   102373150.06342  25000571.992
 128192480.801 6  24394214.859    99890285.82942  24394222.137
 107677215.076 8  20490274.344    83904362.72647  20490279.863
 115499642.295 7  21978849.789    89999729.13945  21978856.832
 114993538.094 7  21882544.313    89605365.45646  21882555.164
 125677603.630 7  23915639.258    97930578.64344  23915647.707
 119561691.787 7  22751821.367    93165008.40945  22751832.922
 131638763.88615  25050022.477
 124552221.197 7  23701482.445    97053684.64243  23701493.180
 108410962.339 9  20629899.367    84476092.65447  20629907.172
 116534853.539 8  22175845.805    90806426.16545  22175853.902
 18  3  9  1  2 30.0000000  0 12G07G24G11G19G28G30G15G06G02G01G17G13
 125327486.060 7  23849033.063    97657779.87443  23849042.156
 131277016.490 5  24981145.453   102293650.13742  24981156.949
 128290430.195 6  24412852.703    99966610.04842  24412860.684
 107646117.568 8  20484356.875    83880130.91347  20484362.395
 115522855.455 7  21983267.711    90017817.30945  21983274.695
 115073093.612 7  21897683.891    89667356.73846  21897694.332
 125688069.915 7  23917630.875    97938734.18044  23917639.383
 119462524.412 7  22732949.742    93087735.15945  22732961.473
 131537931.38815  25030830.008   102497096.68652  25030840.215
 124619653.253 7  23714314.461    97106229.10644  23714324.844
 108431322.052 8  20633773.711    84491957.37447  20633781.164
 116578338.921 8  22184120.867    90840310.86145  22184128.379
 18  3  9  1  3  0.0000000  0 12G07G24G11G19G28G30G15G06G02G01G17G13
 125431437.070 7  23868814.211    97738780.60243  23868823.363
 131175051.995 5  24961742.453   102214197.32243  24961754.301
 128388625.889 6  24431537.781   100043126.12842  24431546.875
 107615517.916 8  20478533.844    83856287.03747  20478538.953
 115546107.057 7  21987691.875    90035935.43745  21987699.563
 115153008.462 7  21912890.820    89729628.03346  21912901.555
 125698987.128 7  23919708.563    97947241.08944  23919716.895
 119363511.824 7  22714108.297    93010582.54645  22714119.852
 131437024.81215  25011630.922
 124687553.007 7  23727235.219    97159138.01344  23727246.363
 108452052.736 9  20637718.898    84508111.15347  20637726.645
 116622285.186 7  22192483.609    90874554.68345  22192491.355
 18  3  9  1  3 30.0000000  0 12G07G24G11G19G28G30G15G06G02G01G17G13
 125535594.399 6  23888634.703    97819942.09243  23888644.324
 131073149.796 5  24942351.227   102134793.03542  24942362.723
 128487065.000 6  24450272.664   100119832.00842  24450279.180
 107585415.616 8  20472805.438    83832830.70747  20472811.016
 115569397.552 7  21992124.156    90054083.86045  21992131.316
 115233280.883 7  21928165.961    89792177.94146  21928176.461
 125710353.672 7  23921871.547    97956098.11844  23921879.938
 119264656.709 7  22695297.422    92933552.61945  22695309.094
 131336046.20815  24992415.203   102339784.18353  24992423.652
 124755918.062 7  23740244.852    97212409.50744  23740255.703
 108473152.720 9  20641734.211    84524552.70047  20641742.191
 116666689.680 7  22200933.594    90909155.56945  22200941.633
 18  3  9  1  4  0.0000000  0 12G07G24G11G19G28G30G15G06G02G01G17G13
 125639956.086 6  23908494.516    97901262.83543  23908503.668
 130971311.923 5  24922972.703   102055438.87943  24922983.613
 128585745.053 6  24469049.711   100196725.65943  24469057.164
 107555810.477 8  20467171.813    83809761.77947  20467177.391
 115592727.828 7  21996564.164    90072263.29746  21996571.383
 115313909.554 7  21943509.078    89855005.45146  21943520.223
 125722168.364 7  23924119.227    97965304.36744  23924128.145
 119165962.381 7  22676515.938    92856648.00145  22676527.375
 131234997.713 5  24973184.492   102261045.37642  24973193.469
 124824746.445 7  23753342.789    97266042.00844  23753353.465
 108494619.784 9  20645818.945    84541280.28447  20645826.105
 116711550.002 8  22209470.484    90944111.64245  22209478.172
 18  3  9  1  4 30.0000000  0 12G07G24G11G19G28G30G15G06G02G01G17G13
 125744520.002 7  23928391.859    97982741.14344  23928401.246
 130869540.663 5  24903605.023   101976136.63042  24903616.578
 128684663.222 6  24487871.203   100273804.74342  24487881.234
 107526702.529 8  20461632.305    83787080.26247  20461638.586
 115616098.635 7  22001011.188    90090474.31445  22001018.348
 115394892.959 7  21958919.617    89918109.37446  21958930.527
 125734430.034 7  23926452.508    97974858.89644  23926461.133
 119067431.776 7  22657765.867    92779870.95045  22657778.125
 131133882.34415  24953946.016
 124894036.029 7  23766527.398    97320033.89944  23766539.070
 108516452.580 8  20649973.703    84558292.85547  20649981.332
 116756863.779 8  22218093.461    90979421.05845  22218100.738
 18  3  9  1  5  0.0000000  0 12G07G24G11G19G28G30G15G06G02G01G17G13
 125849284.349 7  23948327.680    98064375.64743  23948336.891
 130767837.836 5  24884252.313   101896887.71442  24884263.398
 128783816.918 6  24506739.945   100351067.30442  24506750.152
 107498091.087 8  20456187.914    83764785.64847  20456193.199
 115639510.114 7  22005465.492    90108717.01745  22005473.004
 115476229.511 7  21974397.914    89981488.48746  21974408.121
 125747136.919 7  23928870.727    97984760.34144  23928879.293
 118969067.966 7  22639048.047    92703223.87045  22639059.836
 131032701.988 5  24934689.578
 124963784.622 7  23779800.016    97374383.44144  23779811.219
 108538649.234 9  20654197.648    84575588.95347  20654204.926
 116802628.591 8  22226802.055    91015081.93745  22226809.391
 18  3  9  1  5 30.0000000  0 12G07G24G11G19G28G30G15G06G02G01G17G13
 125954247.020 7  23968301.977    98146164.70643  23968310.895
 130666206.300 5  24864912.422   101817694.33743  24864923.918
 128883203.663 6  24525654.289   100428511.57842  24525661.977
 107469975.906 8  20450838.039    83742877.72047  20450843.500
 115662963.138 7  22009928.727    90126992.09845  22009936.063
 115557917.863 7  21989942.547    90045141.72946  21989953.398
 125760287.700 7  23931373.438    97995007.69144  23931382.063
 118870874.141 7  22620362.422    92626709.23545  22620374.621
 130931458.842 6  24915421.531   102024510.47242  24915429.219
 125033990.189 7  23793159.664    97429089.10844  23793170.750
 108561207.933 9  20658490.273    84593167.16747  20658497.727
 116848841.996 7  22235596.172    91051092.36345  22235604.211
 18  3  9  1  6  0.0000000  0 12G07G24G11G19G28G30G15G06G02G01G17G13
 126059405.733 7  23988313.000    98228106.56543  23988321.449
 130564647.581 5  24845585.695   101738557.69842  24845597.191
 128982820.590 6  24544610.641   100506135.15842  24544618.445
 107442357.152 8  20445582.391    83721356.61647  20445587.793
 115686458.275 8  22014399.773    90145299.98545  22014407.578
 115639956.219 7  22005553.984    90109067.69546  22005564.426
 125773880.903 7  23933960.820    98005599.78944  23933968.918
 118772853.046 7  22601709.219    92550329.20445  22601721.477
 130830155.411 5  24896146.383   101945573.06043  24896153.484
 125104650.349 7  23806606.273    97484148.99443  23806616.539
 108584126.758 9  20662851.688    84611025.99847  20662859.258
 116895501.273 7  22244474.695    91087450.22745  22244482.559
 18  3  9  1  6 30.0000000  0 12G07G24G11G19G28G30G15G06G02G01G17G13
 126164758.873 7  24008360.992    98310199.90343  24008369.617
 130463164.528 5  24826274.430   101659480.07842  24826286.219
 129082665.464 6  24563612.148   100583936.40942  24563618.195
 107415234.609 8  20440421.133    83700222.17647  20440427.180
 115709996.606 7  22018879.125    90163641.53646  22018886.109
 115722343.508 7  22021232.016    90173265.56046  22021243.043
 125787915.717 7  23936631.211    98016535.98244  23936639.543
 118675008.304 7  22583090.633    92474086.59345  22583102.246
 130728793.913 5  24876855.078   101866590.34642  24876863.879
 125175763.314 6  23820138.680    97539561.70343  23820149.297
 108607404.278 9  20667281.336    84629164.33747  20667288.906
 116942604.085 7  22253438.492    91124153.69545  22253446.766
 18  3  9  1  7  0.0000000  0 12G07G24G11G19G28G30G15G06G02G01G17G13
 126270303.976 7  24028445.563    98392442.81043  24028454.070
 130361759.264 5  24806977.406   101580463.01742  24806989.195
 129182735.073 6  24582652.977   100661912.78442  24582660.605
 107388607.648 8  20435354.055    83679473.90347  20435360.160
 115733578.273 8  22023366.297    90182016.85545  22023373.691
 115805077.874 7  22036975.859    90237733.87245  22036986.711
 125802389.916 7  23939385.758    98027814.56644  23939393.680
 118577342.659 7  22564505.305    92397983.53145  22564516.742
 130627377.291 6  24857557.297   101787564.72942  24857565.805
 125247326.710 6  23833756.156    97595325.38744  23833768.063
 108631038.463 9  20671778.766    84647580.59447  20671786.395
 116990148.058 8  22262486.148    91161200.92845  22262493.777
 18  3  9  1  7 30.0000000  0 12G07G24G11G19G28G30G15G06G02G01G17G13
 126376039.251 7  24048566.336    98474833.89543  24048575.488
 130260434.450 5  24787696.563   101501508.63843  24787707.180
 129283027.377 6  24601738.375   100740062.60142  24601745.418
 107362475.789 8  20430381.461    83659111.41447  20430386.453
 115757204.099 8  22027862.758    90200426.58645  22027869.918
 115888157.838 7  22052784.953    90302471.48446  22052795.922
 125817302.141 7  23942222.992    98039434.48744  23942231.090
 118479859.215 7  22545954.516    92322022.44345  22545966.598
 130525906.957 6  24838248.000   101708497.11142  24838255.512
 125319338.231 6  23847459.867    97651438.24943  23847470.777
 108655027.642 8  20676343.586    84666273.46847  20676350.922
 117038130.673 7  22271616.555    91198589.95645  22271624.184
 18  3  9  1  8  0.0000000  0 12G07G24G11G19G28G30G15G06G02G01G17G13
 126481962.158 7  24068723.344    98557371.18443  24068732.203
 130159191.488 6  24768430.250   101422618.09643  24768441.629
 129383539.077 6  24620865.313   100818383.49643  24620872.004
 107336838.400 8  20425502.945    83639134.23747  20425508.934
 115780874.689 8  22032367.141    90218871.19245  22032374.125
 115971581.424 7  22068660.516    90367476.85645  22068670.840
 125832651.137 7  23945143.523    98051394.74444  23945152.500
 118382560.689 7  22527439.125    92246205.45145  22527450.914
 130424385.514 6  24818930.609   101629389.61742  24818937.066
 125391795.416 6  23861247.031    97707898.39644  23861259.641
 108679369.595 8  20680975.813    84685241.22347  20680983.676
 117086549.003 8  22280830.219    91236318.50445  22280838.258
 18  3  9  1  8 30.0000000  0 12G07G24G11G19G28G30G15G06G02G01G17G13
 126588070.996 6  24088914.117    98640053.35743  24088923.621
 130058032.909 6  24749180.563   101343793.24343  24749192.000
 129484267.786 6  24640032.617   100896873.35742  24640040.363
 107311695.237 8  20420718.414    83619542.17447  20420723.816
 115804590.700 8  22036879.727    90237351.19345  22036887.414
 116055347.380 7  22084599.977    90432748.99745  22084611.121
 125848434.864 7  23948147.852    98063693.71644  23948156.066
 118285450.374 7  22508959.563    92170535.12245  22508972.055
 130322814.985 6  24799600.367   101550244.01342  24799608.582
 125464696.214 6  23875120.039    97764704.20943  23875131.887
 108704062.659 8  20685675.070    84704482.57347  20685681.938
 117135400.821 7  22290126.984    91274384.84045  22290134.203
 18  3  9  1  9  0.0000000  0 12G07G24G11G19G28G30G15G06G02G01G17G13
 126694363.719 7  24109141.719    98722878.80543  24109150.637
 129956960.872 6  24729946.820   101265035.85143  24729958.082
 129585211.066 6  24659241.602   100975530.52242  24659249.289
 107287046.400 8  20416027.563    83600335.29347  20416033.316
 115828352.878 7  22041401.586    90255867.17945  22041408.570
 116139454.164 7  22100605.180    90498286.71746  22100616.266
 125864652.163 7  23951233.125    98076330.55444  23951242.219
 118188531.536 7  22490516.906    92095013.97345  22490528.344
 130221198.608 5  24780261.008   101471062.57142  24780271.039
 125538038.614 7  23889077.227    97821854.12743  23889088.371
 108729105.057 8  20690440.016    84723996.13547  20690447.410
 117184683.491 7  22299504.469    91312786.89745  22299512.273
 18  3  9  1  9 30.0000000  0 12G07G24G11G19G28G30G15G06G02G01G17G13
 126800838.028 7  24129403.477    98805845.78243  24129411.984
 129855977.742 6  24710730.875   101186347.72043  24710742.723
 129686366.178 6  24678490.313   101054352.72642  24678498.703
 107262891.058 8  20411431.047    83581512.95547  20411436.332
 115852161.912 8  22045932.430    90274419.66945  22045940.117
 116223900.131 7  22116674.945    90564088.74945  22116685.621
 125881301.563 7  23954401.688    98089304.09444  23954410.430
 118091807.117 7  22472110.828    92019644.32845  22472122.383
 130119538.461 6  24760920.023   101391846.99242  24760925.660
 125611820.145 7  23903116.453    97879346.25843  23903127.891
 108754494.994 8  20695271.625    84743780.50947  20695279.078
 117234394.378 7  22308964.203    91351522.63345  22308971.891
 18  3  9  1 10  0.0000000  0 12G07G24G11G19G28G30G15G06G02G01G17G13
 126907491.997 7  24149698.906    98888952.77543  24149707.941
 129755085.750 6  24691531.133   101107730.63543  24691542.453
 129787730.169 6  24697779.430   101133337.65942  24697787.234
 107239228.833 8  20406928.211    83563074.87047  20406934.023
 115876018.244 7  22050472.055    90293009.01845  22050479.391
 116308683.470 7  22132808.508    90630153.67745  22132819.418
 125898381.445 7  23957651.859    98102613.07444  23957660.719
 117995280.032 7  22453742.023    91944428.45845  22453754.047
 130017836.424 5  24741563.977   101312598.69142  24741572.660
 125686038.459 6  23917240.930    97937178.70344  23917251.664
 108780230.922 8  20700169.047    84763834.48147  20700176.500
 117284530.680 7  22318505.484    91390589.86745  22318512.762
 18  3  9  1 10 30.0000000  0 12G07G24G11G19G28G30G15G06G02G01G17G13
 127014323.147 7  24170027.453    98972197.79543  24170036.605
 129654287.443 6  24672350.617   101029186.52043  24672361.586
 129889300.750 6  24717107.930   101212483.58742  24717115.559
 107216059.030 8  20402519.297    83545020.48747  20402524.934
 115899922.804 8  22055021.531    90311635.94045  22055027.930
 116393802.534 7  22149006.125    90696480.19045  22149016.918
 125915889.781 7  23960983.461    98116255.92344  23960992.262
 117898953.365 7  22435411.773    91869368.75945  22435423.445
 129916095.158 5  24722203.047   101233319.91142  24722210.969
 125760691.197 6  23931446.141    97995349.68643  23931457.168
 108806310.067 8  20705131.578    84784155.90047  20705139.324
 117335090.016 7  22328126.305    91429986.73045  22328134.227
 18  3  9  1 11  0.0000000  0 12G07G24G11G19G28G30G15G06G02G01G17G13
 127121329.543 7  24190390.531    99055579.35643  24190399.566
 129553585.012 6  24653187.313   100950717.12943  24653198.516
 129991075.076 6  24736475.055   101291788.26042  24736482.156
 107193381.100 8  20398203.813    83527349.38047  20398209.098
 115923876.460 7  22059578.500    90330301.12945  22059586.363
 116479255.767 7  22165267.875    90763067.10646  22165278.492
 125933825.124 7  23964396.734    98130231.50044  23964405.184
 117802830.153 7  22417120.484    91794467.59245  22417131.688
 129814317.280 6  24702838.094   101154012.61743  24702844.141
 125835776.121 6  23945735.211    98053857.42644  23945745.594
 108832731.007 8  20710159.313    84804743.64647  20710167.234
 117386069.637 7  22337827.703    91469711.09245  22337835.859
 18  3  9  1 11 30.0000000  0 12G07G24G11G19G28G30G15G06G02G01G17G13
 127228509.031 7  24210785.953    99139095.82043  24210795.281
 129452980.711 6  24634042.695   100872324.23843  24634053.723
 130093050.731 5  24755878.969   101371249.91642  24755887.770
 107171195.155 8  20393981.930    83510061.64147  20393987.625
 115947879.513 8  22064146.883    90349004.80345  22064153.984
 116565041.559 7  22181592.211    90829913.16345  22181602.770
 125952185.956 7  23967890.734    98144538.63444  23967899.125
 117706913.624 7  22398867.898    91719727.48245  22398879.453
 129712505.068 5  24683459.453   101074678.50042  24683469.660
 125911290.995 6  23960103.281    98112700.17843  23960115.656
 108859492.074 8  20715251.781    84825596.43647  20715259.176
 117437466.961 7  22347607.906    91509760.93745  22347615.594
 18  3  9  1 12  0.0000000  0 12G07G24G11G19G28G30G15G06G02G01G17G13
 127335859.655 6  24231214.133    99222745.63743  24231223.637
 129352476.760 6  24614917.258   100794009.46343  24614929.047
 130195224.891 5  24775323.000   101450866.18642  24775330.980
 107149500.403 8  20389853.711    83493156.64147  20389859.406
 115971933.157 7  22068724.148    90367747.89745  22068731.426
 116651158.309 7  22197979.656    90897017.10245  22197991.035
 125970970.888 7  23971465.977    98159176.23744  23971473.898
 117611206.882 7  22380655.047    91645150.84545  22380666.836
 129610661.015 5  24664079.250   100995319.61742  24664090.219
 125987233.597 6  23974555.172    98171876.25343  23974566.902
 108886591.537 8  20720408.695    84846712.90347  20720415.973
 117489279.440 7  22357467.070    91550134.27545  22357475.168
 18  3  9  1 12 30.0000000  0 12G07G24G11G19G28G30G15G06G02G01G17G13
 127443379.404 6  24251674.523    99306527.25443  24251683.617
 129252075.300 6  24595811.148   100715774.58942  24595822.879
 130297594.995 6  24794803.688   101530635.06442  24794811.082
 107128296.177 8  20385818.727    83476633.88147  20385824.422
 115996037.925 8  22073311.000    90386530.84445  22073317.984
 116737604.382 7  22214429.672    90964377.65845  22214440.406
 125990178.125 7  23975120.430    98174142.89344  23975128.527
 117515712.955 7  22362483.102    91570740.03145  22362494.656
 129508787.623 6  24644697.398   100915937.88042  24644703.504
 126063601.576 6  23989088.422    98231383.77643  23989099.391
 108914027.553 8  20725629.797    84868091.62147  20725637.719
 117541504.523 7  22367405.406    91590829.12145  22367413.270
 18  3  9  1 13  0.0000000  0 12G07G24G11G19G28G30G15G06G02G01G17G13
 127551065.556 6  24272166.078    99390438.52242  24272175.230
 129151778.740 6  24576725.141   100637621.47642  24576736.930
 130400158.312 5  24814319.820   101610554.62742  24814328.094
 107107581.710 8  20381876.539    83460492.75347  20381882.234
 116020193.989 7  22077907.859    90405353.74245  22077914.902
 116824377.609 7  22230942.180    91031993.14545  22230953.207
 126009805.502 7  23978855.367    98189436.94744  23978863.816
 117420434.530 7  22344352.438    91496497.13745  22344364.285
 129406886.667 6  24625304.789   100836534.58543  24625310.953
 126140392.090 6  24003700.695    98291220.56743  24003711.898
 108941797.506 8  20730913.969    84889730.55547  20730921.832
 117594138.978 7  22377421.703    91631842.96245  22377429.684
 18  3  9  1 13 30.0000000  0 12G07G24G11G19G28G30G15G06G02G01G17G13
 127658916.608 6  24292689.453    99474478.35542  24292698.898
 129051590.081 6  24557660.281   100559552.44843  24557671.309
 130502912.506 5  24833874.664   101690622.84942  24833882.117
 107087356.745 8  20378028.063    83444733.04847  20378033.523
 116044402.674 7  22082514.789    90424217.65945  22082521.363
 116911476.718 7  22247516.555    91099862.57045  22247527.465
 126029851.833 7  23982670.469    98205057.45544  23982678.625
 117325374.988 7  22326263.133    91422424.79145  22326274.746
 129304960.842 5  24605906.961   100757112.02443  24605915.996
 126217603.257 6  24018393.992    98351385.10144  24018404.785
 108969900.193 8  20736261.695    84911628.75247  20736269.441
 117647180.720 7  22387515.016    91673174.17145  22387522.645
 18  3  9  1 14  0.0000000  0 12G07G24G11G19G28G30G15G06G02G01G17G13
 127766930.270 6  24313244.039    99558644.80343  24313253.719
 128951510.859 6  24538615.414   100481568.62743  24538627.555
 130605854.673 5  24853463.406   101770837.54552  24853471.680
 107067620.543 8  20374272.313    83429354.19947  20374277.656
 116068664.759 7  22087132.156    90443123.16645  22087138.848
 116998899.802 7  22264152.313    91167984.43645  22264163.691
 126050315.270 7  23986563.992    98221002.98044  23986572.793
 117230537.265 7  22308216.109    91348525.30045  22308227.664
 129203013.097 6  24586508.703   100677672.40043  24586515.980
 126295232.464 6  24033165.242    98411875.38843  24033176.797
 108998333.119 8  20741672.352    84933784.28947  20741680.039
 117700626.521 7  22397685.180    91714820.22045  22397693.219
 18  3  9  1 14 30.0000000  0 12G07G24G11G19G28G30G15G06G02G01G17G13
 127875104.253 7  24333829.250    99642936.17543  24333838.813
 128851543.729 6  24519593.516   100403672.20843  24519604.250
 130708982.632 5  24873087.641   101851197.08042  24873094.801
 107048372.711 8  20370609.336    83414355.89247  20370615.207
 116092980.983 7  22091758.016    90462070.88845  22091765.703
 117086645.431 7  22280849.938    91236357.63845  22280860.613
 126071194.115 7  23990537.570    98237272.19044  23990546.254
 117135924.712 7  22290212.313    91274801.26245  22290223.691
 129101045.609 6  24567105.250   100598217.26342  24567111.238
 126373277.598 7  24048017.805    98472689.79344  24048028.656
 109027094.964 8  20747145.523    84956196.12347  20747153.152
 117754474.056 7  22407932.383    91756779.33145  22407940.305
 18  3  9  1 15  0.0000000  0 12G07G24G11G19G28G30G15G06G02G01G17G13
 127983436.522 7  24354444.234    99727350.90343  24354453.504
 128751690.490 6  24500591.766   100325864.51743  24500602.441
 130812293.243 5  24892747.742   101931698.82142  24892756.133
 107029612.348 8  20367039.367    83399737.43647  20367045.297
 116117351.826 7  22096396.781    90481061.14945  22096403.707
 117174711.520 7  22297608.875    91304980.54245  22297619.434
 126092486.550 7  23994588.539    98253863.69444  23994598.219
 117041540.038 7  22272251.117    91201254.79445  22272263.141
 128999060.644 6  24547696.789   100518748.56342  24547704.887
 126451735.985 6  24062947.289    98533826.22444  24062958.434
 109056183.829 8  20752681.000    84978862.77347  20752688.453
 117808720.372 7  22418255.039    91799049.16745  22418263.313
 18  3  9  1 15 30.0000000  0 12G07G24G11G19G28G30G15G06G02G01G17G13
 128091924.926 7  24375089.039    99811887.30443  24375098.660
 128651954.147 6  24481611.805   100248147.95243  24481623.301
 130915784.071 5  24912441.586   102012341.08352  24912449.098
 107011338.925 8  20363562.125    83385498.42047  20363567.703
 116141778.034 8  22101044.266    90500094.54845  22101051.777
 117263096.387 7  22314427.609    91373851.84445  22314438.227
 126114190.641 6  23998719.555    98270775.95444  23998727.711
 116947386.337 7  22254334.414    91127888.30545  22254345.910
 128897060.206 6  24528286.961   100439267.88343  24528295.176
 126530605.180 6  24077957.250    98595282.71843  24077967.691
 109085597.346 8  20758278.352    85001782.40347  20758285.688
 117863362.709 7  22428653.078    91841627.59145  22428660.941
 18  3  9  1 16  0.0000000  0 12G07G24G11G19G28G30G15G06G02G01G17G13
 128200566.891 7  24395762.453    99896543.37944  24395772.250
 128552336.612 6  24462655.594   100170523.87843  24462666.563
 131019452.569 5  24932168.344   102093121.69542  24932176.031
 106993551.388 8  20360177.484    83371638.00547  20360182.828
 116166260.396 7  22105703.211    90519171.71445  22105710.313
 117351798.164 7  22331307.445    91442970.09745  22331317.711
 126136304.574 7  24002927.727    98288007.58344  24002936.469
 116853466.487 7  22236461.539    91054704.04545  22236473.387
 128795047.108 6  24508874.609   100359777.31643  24508881.828
 126609882.644 6  24093041.297    98657057.39643  24093052.969
 109115333.513 8  20763936.969    85024953.44647  20763944.480
 117918398.021 7  22439126.500    91884512.23345  22439134.539
 18  3  9  1 16 30.0000000  0 12G07G24G11G19G28G30G15G06G02G01G17G13
 128309360.615 7  24416465.609    99981317.69243  24416474.586
 128452840.542 6  24443722.781   100092994.54043  24443732.930
 131123296.250 5  24951929.383   102174038.94042  24951937.363
 106976249.670 8  20356885.156    83358156.15647  20356890.324
 116190799.696 8  22110373.016    90538293.25145  22110380.059
 117440815.353 7  22348246.391    91512334.12045  22348256.832
 126158826.999 7  24007213.305    98305557.50844  24007222.281
 116759783.919 7  22218635.281    90981704.66345  22218646.484
 128693023.996 6  24489460.289   100280278.87942  24489466.746
 126689566.332 6  24108205.047    98719148.58443  24108215.898
 109145390.990 8  20769656.695    85048374.85847  20769664.441
 117973824.006 7  22449672.758    91927701.29045  22449680.855
 18  3  9  1 17  0.0000000  0 12G07G24G11G19G28G30G15G06G02G01G17G13
 128418303.619 6  24437197.367   100066208.35143  24437206.227
 128353467.957 6  24424812.102   100015561.37843  24424823.598
 131227312.090 5  24971722.734   102255090.29042  24971730.363
 106959432.327 8  20353684.727    83345051.74047  20353690.422
 116215396.658 7  22115053.438    90557459.70945  22115060.715
 117530145.678 7  22365245.953    91581942.13845  22365256.160
 126181755.517 7  24011576.172    98323423.88544  24011585.207
 116666341.074 7  22200853.531    90908892.08145  22200864.383
 128590992.667 6  24470044.930   100200774.07643  24470051.270
 126769653.170 6  24123445.633    98781553.92443  24123456.133
 109175767.240 8  20775436.836    85072044.66947  20775444.641
 118029637.214 7  22460294.281    91971192.07845  22460301.910
 18  3  9  1 17 30.0000000  0 12G07G24G11G19G28G30G15G06G02G01G17G13
 128527394.197 6  24457955.727   100151213.97342  24457964.527
 128254221.786 5  24405926.305    99938226.70542  24405937.039
 131331497.945 5  24991548.273   102336274.07042  24991556.254
 106943099.283 8  20350576.570    83332324.71147  20350582.031
 116240051.959 7  22119745.484    90576671.64645  22119752.703
 117619787.808 7  22382303.977    91651793.12445  22382315.648
 126205088.496 7  24016016.313    98341605.40644  24016025.230
 116573141.534 7  22183117.992    90836269.10345  22183129.078
 128488956.205 6  24450627.813   100121265.26243  24450634.152
 126850141.179 6  24138761.703    98844271.84343  24138773.785
 109206460.828 8  20781277.789    85095961.75647  20781285.184
 118085835.498 7  22470988.891    92014982.93445  22470996.578
 18  3  9  1 18  0.0000000  0 12G07G24G11G19G28G30G15G06G02G01G17G13
 128636630.231 5  24478742.594   100236332.81142  24478752.508
 128155103.932 6  24387065.219    99860992.06943  24387075.602
 131435851.23016  25011405.383   102417588.38052  25011413.773
 106927249.647 8  20347560.609    83319974.35547  20347566.129
 116264766.873 7  22124448.344    90595930.00145  22124455.797
 117709739.994 7  22399421.289    91721885.71545  22399431.496
 126228824.341 6  24020533.297    98360100.85844  24020541.805
 116480188.334 7  22165429.680    90763838.06745  22165440.648
 128386916.868 6  24431208.898   100041754.18443  24431217.230
 126931028.000 6  24154154.516    98907300.51943  24154165.133
 109237470.706 8  20787178.813    85120125.29547  20787186.617
 118142416.029 7  22481755.648    92059071.64045  22481763.395
 18  3  9  1 18 30.0000000  0 12G07G24G11G19G28G30G15G06G02G01G17G13
 128746009.015 6  24499558.078
 128056116.723 6  24368227.625    99783859.16043  24368239.297
 131540369.049 6  25031294.828   102499030.90942  25031303.102
 106911882.345 8  20344636.406    83307999.84347  20344641.574
 116289541.637 7  22129162.984    90615235.02245  22129170.086
 117800000.142 7  22416596.766    91792218.27745  22416607.793
 126252960.993 6  24025126.797    98378908.61244  24025135.656
 116387484.229 7  22147788.695    90691601.12845  22147799.898
 128284876.949 6  24411792.078    99962242.64443  24411799.473
 127012310.831 6  24169620.805    98970637.84343  24169632.711
 109268793.115 8  20793139.148    85144532.37147  20793146.777
 118199375.674 7  22492594.273    92103455.75945  22492602.723
 18  3  9  1 19  0.0000000  0 12G07G24G11G19G28G30G15G06G02G01G17G13
 128855528.458 7  24520397.758
 127957262.832 5  24349415.336    99706830.17843  24349427.477
 131645048.947 5  25051214.727   102580599.68142  25051223.059
 106896996.773 8  20341803.523    83296400.70747  20341808.984
 116314377.230 7  22133889.898    90634587.42345  22133896.531
 117890566.443 7  22433831.516    91862789.39445  22433842.250
 126277496.516 7  24029795.086    98398027.17644  24029803.770
 116295032.257 7  22130194.922    90619560.65545  22130206.652
 128182838.922 6  24392374.547    99882732.57143  24392382.117
 127093987.176 6  24185163.352    99034281.75143  24185175.082
 109300426.894 8  20799158.875    85169182.07647  20799166.563
 118256711.757 7  22503505.125    92148133.20045  22503513.047
 18  3  9  1 19 30.0000000  0 12G07G24G11G19G28G30G15G06G02G01G17G13
 128965186.696 7  24541265.164
 127858544.204 6  24330631.250    99629906.59843  24330642.336
 131749888.446 5  25071165.383   102662292.79842  25071172.836
 106882592.434 8  20339062.766    83285176.55447  20339068.285
 116339274.626 7  22138626.141    90653987.99245  22138633.828
 117981437.191 7  22451123.383    91933597.74445  22451134.527
 126302429.166 6  24034539.516    98417455.19044  24034548.785
 116202835.570 7  22112651.086    90547719.11045  22112662.523
 128080805.162 6  24372957.727    99803225.86143  24372965.648
 127176054.705 6  24200780.328    99098230.50743  24200792.352
 109332369.901 8  20805237.328    85194072.73547  20805245.016
 118314421.461 7  22514486.719    92193101.78745  22514495.109
 18  3  9  1 20  0.0000000  0 12G07G24G11G19G28G30G15G06G02G01G17G13
 129074981.511 7  24562158.883   100577934.48054  24562168.035
 127759963.522 6  24311872.547    99553090.53743  24311883.398
 131854885.23615  25091145.539   102744108.54552  25091153.168
 106868668.243 8  20336412.922    83274326.54447  20336418.617
 116364234.401 7  22143376.906    90673437.16845  22143383.949
 118072610.576 7  22468473.156    92004641.92045  22468483.832
 126327756.971 6  24039359.281    98437191.12044  24039368.316
 116110897.218 7  22095155.789    90476078.86445  22095167.168
 127978778.489 6  24353544.125    99723724.64843  24353550.465
 127258510.822 6  24216472.094    99162482.05743  24216482.945
 109364620.548 8  20811374.734    85219203.11547  20811382.188
 118372501.788 7  22525539.445    92238359.16545  22525546.840
 18  3  9  1 20 30.0000000  0 12G07G24G11G19G28G30G15G06G02G01G17G13
 129184910.507 7  24583077.930   100663593.44144  24583086.848
 127661523.124 6  24293140.781    99476383.77543  24293150.871
 131960036.46715  25111156.086   102826044.62652  25111162.484
 106855223.271 8  20333854.367    83263849.95347  20333860.004
 116389257.587 7  22148138.133    90692935.75945  22148145.117
 118164084.707 7  22485879.969    92075920.44745  22485890.879
 126353477.799 6  24044254.117    98457233.30444  24044262.625
 116019220.164 7  22077709.969    90404642.22645  22077721.406
 127876761.160 6  24334130.680    99644230.70343  24334136.492
 127341353.102 6  24232235.453    99227034.44043  24232248.063
 109397176.553 8  20817569.922    85244571.43947  20817577.551
 118430949.978 7  22536661.898    92283903.18545  22536669.527
 18  3  9  1 21  0.0000000  0 12G07G24G11G19G28G30G15G06G02G01G17G13
 129294971.433 6  24604019.992   100749355.22344  24604030.375
 127563225.360 6  24274434.070    99399788.15243  24274445.391
 132065339.461 5  25131194.070   102908098.92342  25131201.113
 106842256.386 8  20331386.617    83253745.89647  20331392.313
 116414344.796 7  22152912.414    90712484.23845  22152919.398
 118255857.454 7  22503344.203    92147431.65845  22503354.820
 126379589.770 7  24049222.820    98477580.28343  24049232.441
 115927807.215 7  22060314.164    90333411.38245  22060325.719
 127774755.630 6  24314718.867    99564746.00143  24314725.852
 127424578.659 6  24248074.289    99291885.55443  24248084.672
 109430036.028 8  20823822.633    85270176.22747  20823829.910
 118489762.973 7  22547853.391    92329731.47845  22547861.547
 18  3  9  1 21 30.0000000  0 12G07G24G11G19G28G30G15G06G02G01G17G13
 129405162.382 6  24624989.266   100835218.28643  24624999.063
 127465073.152 6  24255756.633    99323305.97243  24255767.133
 132170791.744 5  25151261.047   102990269.63642  25151268.148
 106829767.361 8  20329010.195    83244014.19447  20329015.422
 116439496.932 7  22157698.320    90732083.29545  22157705.480
 118347927.197 7  22520864.359    92219174.29545  22520875.211
 126406091.145 6  24054266.203    98498230.69444  24054275.297
 115836661.566 7  22042970.078    90262388.81346  22042981.457
 127672764.469 6  24295310.688    99485272.46143  24295317.203
 127508185.183 6  24263983.328    99357033.53943  24263993.770
 109463197.475 8  20830133.000    85296016.32547  20830141.039
 118548937.597 7  22559114.008    92375841.55245  22559121.695
 18  3  9  1 22  0.0000000  0 12G07G24G11G19G28G30G15G06G02G01G17G13
 129515481.101 5  24645981.586   100921180.93143  24645992.145
 127367068.086 5  24237106.109    99246938.41243  24237117.781
 132276390.988 5  25171355.219   103072554.77242  25171363.258
 106817755.104 8  20326724.281    83234653.99347  20326729.684
 116464714.810 7  22162497.047    90751733.60145  22162504.441
 118440292.085 7  22538440.742    92291146.90945  22538451.652
 126432980.035 7  24059382.867    98519183.05443  24059392.195
 115745786.308 7  22025676.977    90191576.94845  22025688.473
 127570789.956 6  24275905.461    99405811.87343  24275912.094
 127592170.270 6  24279963.633    99422476.45943  24279976.477
 109496658.346 8  20836500.398    85322089.73147  20836508.379
 118608471.737 7  22570442.867    92422231.77145  22570451.551
 18  3  9  1 22 30.0000000  0 12G07G24G11G19G28G30G15G06G02G01G17G13
 129625925.260 5  24666998.156   101007241.21142  24667009.652
 127269212.644 5  24218484.133    99170687.47143  24218496.215
 132382134.407 5  25191477.813   103154952.31642  25191486.086
 106806218.567 8  20324529.016    83225664.49047  20324534.594
 116489999.200 7  22167308.586    90771435.72145  22167315.570
 118532950.165 7  22556072.961    92363347.98645  22556083.813
 126460254.419 6  24064572.766    98540435.82244  24064582.211
 115655184.368 7  22008436.320    90120978.06946  22008447.699
 127468834.565 6  24256503.211    99326366.21743  24256510.488
 127676531.242 6  24296018.008    99488212.26243  24296030.090
 109530416.770 8  20842924.438    85348395.00047  20842932.242
 118668362.127 7  22581839.375    92468899.58544  22581847.941
 18  3  9  1 23  0.0000000  0 12G07G24G11G19G28G30G15G06G02G01G17G13
 129736492.815 5  24688038.891   101093397.73242  24688050.094
 127171510.348 6  24199893.781    99094555.87743  24199904.164
 132488019.915 5  25211627.469   103237460.54142  25211634.512
 106795157.386 8  20322424.211    83217045.40247  20322429.672
 116515351.168 8  22172132.898    90791190.50845  22172140.352
 118625899.830 7  22573760.547    92435776.26145  22573771.457
 126487912.118 6  24069835.781    98561987.25443  24069845.051
 115564858.999 7  21991247.742    90050594.69646  21991259.766
 127366901.197 6  24237106.609    99246937.75343  24237112.832
 127761265.749 6  24312142.516    99554239.17843  24312153.543
 109564471.288 8  20849404.828    85374931.00147  20849412.516
 118728605.931 7  22593303.531    92515842.78845  22593311.629
 18  3  9  1 23 30.0000000  0 12G07G24G11G19G28G30G15G06G02G01G17G13
 129847181.264 6  24709102.695   101179648.45443  24709113.020
 127073962.785 6  24181330.539    99018544.81743  24181340.805
 132594044.463 5  25231803.234   103320077.13442  25231810.629
 106784570.210 8  20320409.367    83208795.65947  20320415.180
 116540771.501 7  22176970.250    90810998.55945  22176977.645
 118719138.823 7  22591503.195    92508429.99945  22591514.633
 126515951.141 7  24075172.063    98583835.84044  24075180.746
 115474812.879 7  21974112.281    89980428.90946  21974123.602
 127264991.750 6  24217713.281    99167527.84043  24217719.504
 127846370.948 6  24328339.711    99620554.93243  24328349.391
 109598819.629 8  20855941.133    85401695.94847  20855948.293
 118789200.361 7  22604834.125    92563059.20844  22604842.398
 18  3  9  1 24  0.0000000  0 12G07G24G11G19G28G30G15G06G02G01G17G13
 129957988.733 6  24730189.500   101265991.98242  24730198.652
 126976572.179 6  24162798.484    98942656.08343  24162808.457
 132700206.033 6  25252003.609   103402800.50742  25252011.297
 106774456.005 8  20318484.875    83200914.46647  20318490.043
 116566261.171 8  22181821.094    90830860.65545  22181828.313
 118812665.483 7  22609301.039    92581307.88145  22609311.832
 126544369.528 6  24080579.227    98605980.01144  24080588.730
 115385049.177 7  21957031.039    89910483.19246  21957042.770
 127163109.037 6  24198325.844    99088138.80343  24198332.125
 127931844.447 6  24344602.664    99687157.66543  24344614.805
 109633460.419 8  20862533.094    85428688.78547  20862540.781
 118850142.082 7  22616430.914    92610546.25245  22616439.422
 18  3  9  1 24 30.0000000  0 12G07G24G11G19G28G30G15G06G02G01G17G13
 130068912.589 6  24751296.883   101352426.24443  24751306.563
 126879341.711 6  24144295.875    98866892.12843  24144306.258
 132806501.575 6  25272231.781   103485628.21142  25272238.707
 106764813.540 8  20316650.148    83193400.86647  20316655.492
 116591820.303 7  22186684.234    90850776.86845  22186692.098
 118906477.396 7  22627152.484    92654408.05145  22627164.215
 126573164.868 7  24086058.859    98628417.91443  24086068.422
 115295570.489 7  21940003.766    89840759.57246  21940015.379
 127061255.347 6  24178944.539    99008772.38843  24178950.410
 128017683.223 6  24360936.320    99754045.07943  24360949.047
 109668390.425 8  20869180.016    85455906.97647  20869187.469
 118911428.344 7  22628093.727    92658301.75545  22628101.941
 18  3  9  1 25  0.0000000  0 12G07G24G11G19G28G30G15G06G02G01G17G13
 130179950.948 6  24772426.688   101438949.72242  24772436.426
 126782273.060 6  24125823.820    98791254.25143  24125834.496
 132912929.074 5  25292484.727   103568558.77842  25292492.180
 106755642.161 8  20314904.547    83186254.34947  20314909.715
 116617450.195 7  22191562.367    90870748.21945  22191569.059
 119000572.924 7  22645058.484    92727729.22145  22645069.629
 126602335.551 6  24091610.477    98651148.30343  24091618.984
 115206380.088 7  21923031.586    89771260.59146  21923043.199
 126959433.114 6  24159567.148    98929430.44943  24159573.664
 128103884.940 6  24377341.367    99821215.24643  24377351.867
 109703608.240 8  20875881.836    85483349.43147  20875889.055
 118973055.876 7  22639821.352    92706323.19745  22639829.508
 18  3  9  1 25 30.0000000  0 12G07G24G11G19G28G30G15G06G02G01G17G13
 130291101.700 6  24793578.305   101525560.80242  24793587.633
 126685368.648 6  24107381.820    98715744.37443  24107394.430
 133019485.905 6  25312762.117   103651590.19242  25312768.867
 106746941.263 8  20313248.508    83179474.43747  20313253.910
 116643152.017 7  22196452.578    90890775.62245  22196460.676
 119094950.394 7  22663018.219    92801270.08345  22663028.484
 126631879.546 6  24097232.438    98674169.58744  24097240.359
 115117481.106 7  21906114.508    89701988.67746  21906126.004
 126857645.253 6  24140197.680    98850115.28143  24140204.020
 128190447.248 6  24393813.070    99888666.42943  24393824.156
 109739112.173 8  20882637.953    85511014.84447  20882644.938
 119035022.349 7  22651613.234    92754608.73445  22651621.039
 18  3  9  1 26  0.0000000  0 12G07G24G11G19G28G30G15G06G02G01G17G13
 130402362.371 6  24814750.695   101612257.47842  24814759.438
 126588631.813 6  24088974.594    98640365.06743  24088985.563
 133126169.505 6  25333061.930   103734720.26242  25333070.438
 106738709.381 8  20311682.508    83173059.99847  20311688.027
 116668926.316 7  22201357.469    90910859.50145  22201364.512
 119189607.466 7  22681030.375    92875028.81745  22681042.047
 126661794.341 7  24102924.906    98697479.79643  24102933.355
 115028876.224 7  21889253.336    89632945.94546  21889264.891
 126755893.940 6  24120835.188    98770828.62843  24120841.703
 128277367.198 6  24410353.945    99956396.28843  24410364.152
 109774900.055 8  20889448.109    85538901.51647  20889455.328
 119097324.342 7  22663468.898    92803155.72745  22663476.703
 18  3  9  1 26 30.0000000  0 12G07G24G11G19G28G30G15G06G02G01G17G13
 130513730.948 6  24835942.945   101699038.26443  24835952.215
 126492064.325 6  24070598.141    98565117.71543  24070608.992
 133232977.615 6  25353386.805   103817947.45342  25353394.902
 106730945.570 8  20310204.844    83167010.28247  20310210.422
 116694774.423 7  22206276.305    90931000.88945  22206283.465
 119284542.533 7  22699096.438    92949004.17645  22699107.465
 126692078.308 6  24108688.281    98721077.68543  24108696.438
 114940568.708 7  21872449.148    89564134.91546  21872460.469
 126654181.749 6  24101479.164    98691572.43443  24101486.090
 128364642.460 6  24426961.820   100024403.00043  24426972.965
 109810970.348 9  20896312.086    85567008.24347  20896319.656
 119159959.057 7  22675386.656    92851961.98544  22675395.281
 18  3  9  1 27  0.0000000  0 12G07G24G11G19G28G30G15G06G02G01G17G13
 130625204.923 6  24857155.406   101785901.11943  24857164.793
 126395668.777 6  24052255.203    98490004.32944  24052266.172
 133339907.571 6  25373735.648   103901269.54142  25373742.633
 106723648.734 8  20308816.273    83161324.44747  20308821.969
 116720696.395 7  22211209.000    90951199.83145  22211215.809
 119379753.208 7  22717214.234    93023194.29045  22717225.145
 126722729.186 6  24114519.883    98744961.46643  24114528.625
 114852561.162 7  21855701.492    89495557.64046  21855713.105
 126552510.827 6  24082132.266    98612348.42143  24082139.191
 128452270.003 6  24443635.656   100092684.25743  24443647.680
 109847320.466 9  20903229.102    85595333.02247  20903236.672
 119222923.167 7  22687368.883    92901024.90244  22687376.863
 18  3  9  1 27 30.0000000  0 12G07G24G11G19G28G30G15G06G02G01G17G13
 130736782.246 6  24878388.672   101872844.49843  24878397.004
 126299447.792 6  24033945.016    98415026.96944  24033955.809
 133446957.162 6  25394106.352   103984684.84842  25394113.746
 106716817.955 8  20307516.594    83156001.77447  20307522.230
 116746693.490 7  22216155.969    90971457.31545  22216162.660
 119475237.734 7  22735384.258    93097597.80745  22735395.344
 126753744.745 7  24120422.148    98769129.40543  24120431.008
 114764856.735 7  21839012.672    89427216.54746  21839024.227
 126450884.262 6  24062794.047    98533158.96843  24062800.621
 128540247.486 6  24460378.305   100161238.10543  24460388.746
 109883948.803 8  20910199.516    85623874.59547  20910207.496
 119286214.027 7  22699413.531    92950342.43944  22699421.395
 18  3  9  1 28  0.0000000  0 12G07G24G11G19G28G30G15G06G02G01G17G13
 130848460.776 6  24899640.133   101959866.72043  24899649.051
 126203403.130 6  24015668.086    98340187.01844  24015679.055
 133554124.051 6  25414499.109   104068191.63442  25414506.973
 106710452.113 8  20306305.258    83151041.39647  20306310.250
 116772766.722 7  22221117.430    90991774.11745  22221125.117
 119570994.226 7  22753606.320    93172213.22945  22753617.465
 126785122.981 7  24126393.773    98793579.96243  24126402.398
 114677458.457 7  21822381.211    89359114.02146  21822392.531
 126349304.293 6  24043463.836    98454005.82043  24043470.000
 128628572.282 6  24477184.805   100230062.62043  24477197.004
 109920853.185 8  20917221.883    85652631.27047  20917229.277
 119349828.706 7  22711518.750    92999912.30444  22711526.203
 18  3  9  1 28 30.0000000  0 12G07G24G11G19G28G30G15G06G02G01G17G13
 130960238.162 5  24920910.055   102046966.01243  24920919.324
 126107537.690 6  23997425.773    98265486.69044  23997436.215
 133661405.825 5  25434913.664   104151787.80742  25434921.820
 106704549.975 8  20305182.094    83146442.33947  20305187.379
 116798916.766 7  22226093.938    91012150.77545  22226101.156
 119667020.530 7  22771878.891    93247038.89845  22771890.387
 126816861.668 6  24132433.086    98818311.38343  24132442.297
 114590369.065 7  21805808.297    89291252.17946  21805820.555
 126247773.328 6  24024142.742    98374890.84743  24024149.961
 128717241.533 6  24494058.484   100299155.61543  24494069.688
 109958031.643 8  20924296.758    85681601.51347  20924304.621
 119413763.772 7  22723685.227    93049731.81244  22723693.090
 18  3  9  1 29  0.0000000  0 12G07G24G11G19G28G30G15G06G02G01G17G13
 131072112.547 6  24942199.852   102134140.82443  24942208.359
 126011854.213 6  23979217.742    98190928.16444  23979228.125
 133768800.237 6  25455351.477   104235441.82052  25455359.984
 106699110.589 8  20304146.984    83142203.87047  20304152.211
 116825144.416 7  22231084.422    91032587.91245  22231091.523
 119763314.738 7  22790203.477    93322073.31845  22790214.387
 126848958.604 6  24138541.156    98843321.96843  24138550.133
 114503591.692 7  21789294.719    89223633.49246  21789306.742
 126146294.105 6  24004831.430    98295816.22443  24004838.648
 128806252.772 6  24510996.070   100368515.03943  24511008.680
 109995482.060 8  20931423.422    85710783.66947  20931431.168
 119478016.586 7  22735911.922    93099798.92244  22735920.430
 18  3  9  1 29 30.0000000  0 12G07G24G11G19G28G30G15G06G02G01G17G13
 131184081.410 6  24963506.664   102221389.28843  24963515.582
 125916354.694 6  23961043.906    98116512.99043  23961054.992
 133876304.497 5  25475809.078   104319211.50842  25475815.477
 106694132.848 8  20303199.445    83138325.11947  20303204.965
 116851450.929 7  22236090.695    91053086.49445  22236097.680
 119859874.834 7  22808578.430    93397314.93445  22808588.930
 126881411.442 6  24144716.484    98868609.88744  24144725.695
 114417129.134 7  21772841.867    89156260.09546  21772852.953
 126044869.080 6  23985531.836    98216783.79544  23985537.648
 128895603.203 6  24527999.945   100438138.79543  24528011.383
 110033203.062 9  20938601.297    85740176.66647  20938608.457
 119542584.033 7  22748198.844    93150111.19344  22748206.648
 18  3  9  1 30  0.0000000  0 12G07G24G11G19G28G30G15G06G02G01G17G13
 131296142.258 6  24984830.281   102308709.41543  24984839.668
 125821042.113 6  23942906.961    98042243.46743  23942917.520
 133983916.254 6  25496285.523   104403064.85842  25496293.855
 106689615.441 8  20302339.773    83134805.06947  20302345.410
 116877837.057 7  22241112.234    91073647.11645  22241118.691
 119956698.711 6  22827003.148    93472762.09545  22827014.469
 126914218.332 6  24150959.438    98894173.67443  24150968.414
 114330984.310 7  21756448.602    89089134.29346  21756460.273
 125943500.508 6  23966241.766    98137795.37243  23966247.578
 128985290.230 6  24545066.086   100508024.81943  24545078.402
 110071191.911 8  20945830.680    85769778.37647  20945838.016
 119607463.195 7  22760545.172    93200666.35944  22760553.094
 18  3  9  1 30 30.0000000  0 12G07G24G11G19G28G30G15G06G02G01G17G13
 131408293.058 6  25006171.914   102396099.69543  25006181.184
 125725918.636 6  23924805.586    97968121.32844  23924816.379
 134091633.653 6  25516784.563   104487000.54942  25516791.078
 106685557.325 8  20301567.805    83131642.91247  20301573.207
 116904303.713 7  22246147.891    91094270.49345  22246155.109
 120053784.462 6  22845479.047    93548413.29945  22845489.254
 126947376.922 7  24157269.680    98920011.53143  24157278.305
 114245160.222 7  21740117.461    89022258.41946  21740128.488
 125842191.047 7  23946962.727    98058853.00144  23946969.418
 129075311.223 6  24562195.305   100578171.05642  24562208.734
 110109447.082 8  20953110.352    85799587.60547  20953117.688
 119672650.780 7  22772949.711    93251461.86944  22772957.984
 18  3  9  1 31  0.0000000  0 12G07G24G11G19G28G30G15G06G02G01G17G13
 131520531.837 6  25027530.352   102483558.46742  25027540.031
 125630987.219 6  23906740.633    97894148.82243  23906751.660
 134199453.652 5  25537301.172   104571016.23842  25537309.211
 106681957.660 8  20300882.398    83128837.99147  20300888.328
 116930851.714 7  22251200.375    91114957.24745  22251207.418
 120151129.965 6  22864002.625    93624266.92745  22864013.418
 126980885.056 6  24163645.953    98946121.75043  24163654.754
 114159659.690 7  21723846.977    88955634.66346  21723858.297
 125740943.132 6  23927696.305    97979958.62244  23927702.527
 129165663.385 6  24579390.141   100648575.38043  24579401.520
 110147966.385 8  20960440.328    85829602.65947  20960447.957
 119738143.588 7  22785412.625    93302495.20544  22785420.664
 18  3  9  1 31 30.0000000  0 12G07G24G11G19G28G30G15G06G02G01G17G13
 131632856.479 6  25048906.164   102571084.17242  25048914.848
 125536249.952 6  23888713.070    97820327.59843  23888723.512
 134307374.765 5  25557836.609   104655097.65452  25557844.766
 106678814.878 8  20300284.617    83126389.07747  20300290.195
 116957482.175 7  22256267.664    91135708.27045  22256275.000
 120248733.354 7  22882575.891    93700321.50045  22882587.035
 127014740.650 6  24170087.625    98972502.72943  24170097.070
 114074485.776 7  21707639.063    88889265.40546  21707650.090
 125639759.556 7  23908441.250    97901114.31444  23908447.590
 129256344.159 5  24596646.094   100719235.74243  24596658.117
 110186748.557 8  20967820.195    85859822.53947  20967827.590
 119803939.014 7  22797933.070    93353764.34844  22797940.934
 18  3  9  1 32  0.0000000  0 11G07G24G19G28G30G15G06G02G01G17G13
 131745264.619 6  25070295.063   102658674.94642  25070305.563
 125441709.381 6  23870723.469    97746659.65043  23870733.090
 106676127.882 8  20299773.609    83124295.32447  20299778.602
 116984196.111 7  22261350.625    91156524.32045  22261359.074
 120346592.643 7  22901198.227    93776575.48545  22901208.727
 127048941.454 6  24176596.789    98999152.68843  24176605.355
 113989641.455 7  21691493.219    88823152.97546  21691504.656
 125538642.715 7  23889199.930    97822322.02644  23889206.797
 129347351.002 6  24613965.109   100790150.13043  24613976.137
 110225790.908 9  20975249.875    85890245.15747  20975257.621
 119870033.825 7  22810510.563    93405266.77344  22810519.012
 18  3  9  1 32 30.0000000  0 11G07G24G19G28G30G15G06G02G01G17G13
 131857753.982 6  25091703.008   102746328.97242  25091711.691
 125347367.873 6  23852770.570    97673146.80643  23852780.660
 106673895.285 8  20299348.539    83122555.64647  20299354.000
 117010993.976 7  22266450.508    91177405.77345  22266457.727
 120444705.430 6  22919868.133    93853026.99545  22919879.336
 127083484.731 6  24183170.758    99026069.50444  24183179.207
 113905129.252 7  21675410.906    88757299.33846  21675422.520
 125437594.772 7  23869970.859    97743583.42343  23869976.672
 129438680.830 5  24631342.781   100861316.27243  24631355.156
 110265091.432 8  20982728.258    85920868.95147  20982735.594
 119936424.961 7  22823144.102    93457000.10344  22823152.023
 18  3  9  1 33  0.0000000  0 11G07G24G19G28G30G15G06G02G01G17G13
 131970322.367 6  25113124.781   102834044.70442  25113132.352
 125253228.075 6  23834854.883    97599791.13343  23834866.027
 106672116.055 8  20299010.086    83121169.24647  20299015.723
 117037876.917 7  22271566.477    91198353.53145  22271573.285
 120543069.847 6  22938585.570    93929674.56744  22938597.594
 127118368.917 7  24189807.664    99053251.96243  24189817.754
 113820952.238 7  21659392.805    88691706.88846  21659404.652
 125336618.569 7  23850755.242    97664900.68743  23850761.641
 129530331.249 5  24648784.047   100932732.21643  24648795.602
 110304648.278 9  20990255.813    85951692.47847  20990263.383
 120003109.446 7  22835834.258    93508962.03445  22835842.004
 18  3  9  1 33 30.0000000  0 11G07G24G19G28G30G15G06G02G01G17G13
 132082967.416 6  25134557.695
 125159292.339 6  23816980.148    97526594.48143  23816991.059
 106670789.094 8  20298757.609    83120135.26447  20298762.660
 117064845.841 7  22276698.352    91219368.27945  22276705.863
 120641683.782 7  22957352.172    94006516.56545  22957362.848
 127153591.395 7  24196511.172    99080698.03243  24196519.738
 113737113.246 7  21643438.773    88626377.83246  21643450.738
 125235716.328 7  23831554.813    97586275.63344  23831560.508
 129622299.245 5  24666284.117   101004395.63543  24666296.609
 110344459.419 8  20997831.219    85982714.15747  20997839.141
 120070083.924 7  22848579.031    93561149.90944  22848587.129
 18  3  9  1 34  0.0000000  0 11G07G24G19G28G30G15G06G02G01G17G13
 132195687.542 6  25156006.383
 125065563.080 6  23799143.734    97453558.74843  23799154.762
 106669913.173 8  20298590.672    83119452.73347  20298596.016
 117091901.830 7  22281846.719    91240450.86045  22281854.113
 120740545.307 6  22976164.453    94083551.51445  22976175.246
 127189149.775 7  24203277.102    99108405.84343  24203286.430
 113653615.356 7  21627549.648    88561314.56546  21627561.496
 125134891.160 7  23812367.781    97507710.59743  23812373.887
 129714582.549 5  24683845.086   101076304.68443  24683857.285
 110384523.220 8  21005455.500    86013932.70547  21005463.129
 120137345.795 7  22861378.516    93613561.73444  22861386.086
 18  3  9  1 34 30.0000000  0 11G07G24G19G28G30G15G06G02G01G17G13
 132308480.119 6  25177474.086
 124972043.107 6  23781348.008    97380686.06844  23781358.391
 106669486.506 8  20298509.711    83119120.28047  20298515.230
 117119045.536 7  22287012.430    91261601.81845  22287019.297
 120839652.101 6  22995023.734    94160777.56745  22995034.879
 127225041.658 6  24210107.547    99136373.53943  24210116.348
 113570461.065 7  21611726.156    88496519.04846  21611737.418
 125034144.947 7  23793196.484    97429207.08343  23793202.883
 129807178.039 5  24701465.672   101148457.05343  24701477.871
 110424837.119 8  21013126.938    86045346.14447  21013135.035
 120204891.417 7  22874231.500    93666194.67544  22874240.359
 18  3  9  1 35  0.0000000  0 11G07G24G19G28G30G15G06G02G01G17G13
 132421343.029 6  25198950.578
 124878734.680 6  23763590.727    97307978.24844  23763602.633
 106669507.776 8  20298513.188    83119136.86547  20298518.941
 117146277.673 7  22292194.016    91282821.67145  22292201.996
 120939002.148 7  23013930.102    94238193.15445  23013940.953
 127261264.918 7  24217000.211    99164599.43243  24217009.070
 113487653.354 7  21595968.359    88431993.57446  21595979.563
 124933480.410 7  23774040.594    97350767.24243  23774046.816
 129900083.063 5  24719144.977   101220850.62943  24719157.000
 110465399.549 8  21020845.750    86076953.24147  21020853.027
 120272717.938 7  22887138.484    93719046.48344  22887147.578
 18  3  9  1 35 30.0000000  0 11G07G24G19G28G30G15G06G02G01G17G13
 132534273.952 6  25220440.297
 124785640.204 6  23745876.883    97235437.13744  23745887.324
 106669976.537 8  20298602.938    83119502.14847  20298608.398
 117173599.691 7  22297393.516    91304111.55645  22297400.852
 121038593.342 6  23032881.789    94315796.66545  23032892.465
 127297817.371 6  24223956.336    99193081.84843  24223964.492
 113405195.020 7  21580276.883    88367740.36146  21580288.203
 124832900.098 7  23754900.734    97272393.00543  23754906.605
 129993294.979 5  24736884.703   101293483.29043  24736894.383
 110506208.230 9  21028611.258    86108752.22347  21028618.770
 120340822.188 7  22900097.797    93772114.71444  22900106.891
 18  3  9  1 36  0.0000000  0 11G07G24G19G28G30G15G06G02G01G17G13
 132647270.992 6  25241944.563
 124692762.650 6  23728202.734    97163065.05344  23728213.234
 106670891.068 8  20298776.766    83120214.78347  20298782.813
 117201012.798 7  22302610.250    91325472.42845  22302616.531
 121138423.765 6  23051878.391    94393586.59645  23051889.594
 127334696.683 7  24230973.648    99221818.98143  24230982.742
 113323089.125 7  21564652.656    88303761.77246  21564664.328
 124732406.713 7  23735777.805    97194086.52444  23735783.969
 130086811.105 5  24754678.375   101366353.06443  24754689.461
 110547261.971 8  21036423.609    86140742.16247  21036431.297
 120409201.269 7  22913110.734    93825397.09844  22913119.418
 18  3  9  1 36 30.0000000  0 11G07G24G19G28G30G15G06G02G01G17G13
 132760331.916 6  25263459.070
 124600104.112 6  23710570.727    97090863.63044  23710580.816
 106672250.017 8  20299035.195    83121273.72247  20299040.539
 117228517.134 7  22307844.297    91346904.39145  22307851.457
 121238491.027 7  23070920.500    94471561.07345  23070931.879
 127371900.287 7  24238053.148    99250808.81343  24238063.121
 113241338.157 7  21549095.711    88240059.75446  21549107.266
 124632002.576 6  23716671.367    97115849.59644  23716677.473
 130180628.528 6  24772532.883   101439457.56643  24772542.973
 110588558.338 8  21044282.008    86172921.16147  21044289.988
 120477851.628 7  22926174.852    93878890.86544  22926182.480
 18  3  9  1 37  0.0000000  0 11G07G24G19G28G30G15G06G02G01G17G13
 132873454.264 6  25284980.586
 124507667.410 6  23692980.273    97018835.08044  23692990.832
 106674052.128 8  20299378.438    83122677.96947  20299384.133
 117256114.078 7  22313095.109    91368408.48645  22313103.148
 121338793.297 7  23090007.836    94549718.66545  23090018.688
 127409426.053 7  24245193.648    99280049.62243  24245203.211
 113159945.195 7  21533607.563    88176636.70346  21533618.707
 124531690.116 6  23697582.023    97037684.10043  23697587.719
 130274744.692 6  24790442.242   101512794.86143  24790452.742
 110630094.974 8  21052186.375    86205287.37647  21052193.770
 120546770.271 7  22939289.688    93932593.68344  22939297.375
 18  3  9  1 37 30.0000000  0 11G07G24G19G28G30G15G06G02G01G17G13
 132986636.480 6  25306518.414
 124415454.959 6  23675431.711    96946981.25244  23675442.914
 106676295.838 8  20299805.273    83124426.32047  20299810.910
 117283804.492 7  22318365.188    91389985.44245  22318371.703
 121439328.274 6  23109138.797    94628057.60545  23109149.590
 127447271.532 6  24252395.703    99309539.60843  24252404.973
 113078912.929 7  21518187.305    88113494.70246  21518198.801
 124431472.090 6  23678511.750    96959592.18444  23678517.797
 130369156.839 6  24808407.008   101586362.78843  24808418.504
 110671870.268 8  21060135.703    86237839.56047  21060143.332
 120615954.238 7  22952455.133    93986503.25044  22952462.938
 18  3  9  1 38  0.0000000  0 11G07G24G19G28G30G15G06G02G01G17G13
 133099876.311 5  25328068.500
 124323468.773 6  23657927.133    96875303.74844  23657938.395
 106678979.840 8  20300316.117    83126517.75547  20300321.344
 117311589.285 8  22323652.859    91411635.94245  22323659.844
 121540093.762 6  23128313.922    94706576.13745  23128324.773
 127485434.308 6  24259658.820    99339276.81543  24259667.094
 112998244.060 7  21502836.664    88050635.87746  21502848.102
 124331350.644 6  23659458.664    96881575.54143  23659465.121
 130463861.999 5  24826428.906   101660159.03543  24826440.227
 110713882.040 8  21068130.508    86270576.01547  21068137.785
 120685400.583 7  22965669.508    94040617.26144  22965677.957
 18  3  9  1 38 30.0000000  0 11G07G24G19G28G30G15G06G02G01G17G13
 133213171.867 7  25349628.875
 124231711.859 6  23640466.977    96803804.90544  23640478.297
 106682103.200 8  20300910.391    83128951.55247  20300915.559
 117339469.771 7  22328957.266    91433361.00445  22328965.070
 121641088.006 7  23147532.055    94785272.93945  23147543.727
 127523912.311 7  24266980.883    99369259.67843  24266989.039
 112917941.756 7  21487555.719    87988062.68646  21487567.215
 124231328.826 7  23640425.727    96803636.52343  23640431.246
 130558857.884 6  24844506.719   101734181.85343  24844518.156
 110756128.672 8  21076169.602    86303495.47247  21076177.230
 120755106.194 7  22978933.813    94094933.31144  22978942.496
 18  3  9  1 39  0.0000000  0 11G07G24G19G28G30G15G06G02G01G17G13
 133326519.48816  25371199.773
 124140186.638 6  23623050.633    96732486.59444  23623060.547
 106685663.688 8  20301587.852    83131725.97447  20301592.727
 117367446.188 7  22334281.023    91455160.80545  22334288.125
 121742308.551 7  23166794.602    94864146.07644  23166805.336
 127562702.841 6  24274362.289    99399486.05643  24274371.617
 112838008.446 7  21472344.641    87925777.01946  21472355.961
 124131408.725 6  23621410.891    96725776.76243  23621416.938
 130654141.429 5  24862637.484   101808428.81043  24862649.332
 110798607.990 8  21084253.328    86336596.24547  21084260.430
 120825067.682 7  22992247.695    94149448.74244  22992255.734
 18  3  9  1 39 30.0000000  0 11G07G24G19G28G30G15G06G02G01G17G13
 133439918.78517  25392780.922   103979202.79554  25392786.441
 124048895.943 6  23605678.320    96661351.02644  23605688.762
 106689660.966 8  20302348.570    83134840.75247  20302353.855
 117395520.203 7  22339623.320    91477036.68545  22339630.422
 121843753.455 6  23186098.055    94943194.05245  23186108.496
 127601803.621 7  24281802.555    99429954.18343  24281811.766
 112758447.135 8  21457204.563    87863781.22346  21457215.707
 124031593.255 6  23602416.695    96647998.53844  23602423.152
 130749710.052 6  24880824.313   101882897.86043  24880835.340
 110841318.386 8  21092380.719    86369877.08247  21092388.172
 120895282.385 7  23005608.430    94204161.47844  23005617.055
 18  3  9  1 40  0.0000000  0 10G24G19G28G30G15G06G02G01G17G13
 123957841.969 6  23588350.406    96590399.93444  23588361.375
 106694093.229 8  20303192.203    83138294.47747  20303197.898
 117423692.956 7  22344983.734    91498989.48145  22344991.832
 121945420.534 6  23205445.398    95022415.14544  23205455.723
 127641212.417 6  24289301.500    99460662.31743  24289310.652
 112679260.559 7  21442135.836    87802077.43046  21442147.039
 123931884.868 6  23583442.555    96570303.74344  23583449.422
 130845561.060 5  24899062.961   101957587.02143  24899075.043
 110884257.635 8  21100551.828    86403336.24847  21100559.047
 120965746.817 7  23019017.891    94259068.80144  23019026.223
 18  3  9  1 40 30.0000000  0 10G24G19G28G30G15G06G02G01G17G13
 123867027.453 6  23571070.344    96519635.40844  23571081.137
 106698959.222 8  20304117.938    83142086.17547  20304123.633
 117451965.018 7  22350365.008    91521019.65545  22350371.641
 122047307.886 7  23224833.094    95101807.88044  23224844.473
 127680926.892 6  24296859.797    99491608.65443  24296868.422
 112600451.628 8  21427139.242    87740667.89546  21427150.797
 123832286.123 7  23564489.227    96492694.37744  23564496.270
 130941691.837 6  24917357.172   102032494.09942  24917367.789
 110927424.438 8  21108766.219    86436972.72247  21108773.789
 121036458.004 7  23032474.047    94314168.40944  23032481.500
 18  3  9  1 41  0.0000000  0 11G12G24G19G28G30G15G06G02G01G17G13
 133880872.619 6  25476683.242
 123776454.854 6  23553834.156    96449059.40144  23553845.535
 106704256.663 8  20305126.023    83146214.06347  20305131.309
 117480337.059 7  22355763.992    91543127.76045  22355770.742
 122149412.875 7  23244263.711    95181370.18644  23244274.738
 127720943.827 7  24304474.289    99522790.68643  24304482.680
 112522022.681 7  21412214.656    87679554.46846  21412225.801
 123732799.137 6  23545557.906    96415172.09144  23545564.598
 131038099.097 6  24935702.844   102107616.74943  24935713.637
 110970815.521 8  21117023.117    86470783.96947  21117030.980
 121107412.531 7  23045975.984    94369457.64444  23045984.141
 18  3  9  1 41 30.0000000  0 11G12G24G19G28G30G15G06G02G01G17G13
 133806664.06816  25462564.313
 123686126.516 6  23536643.414    96378673.71544  23536656.434
 106709985.415 8  20306216.016    83150678.04447  20306221.711
 117508810.743 7  22361181.938    91565315.04545  22361189.098
 122251733.868 6  23263734.289    95261100.82344  23263745.316
 127761261.895 6  24312146.242    99554207.32843  24312154.984
 112443976.988 8  21397363.102    87618739.67346  21397374.129
 123633426.866 7  23526648.102    96337739.20344  23526654.148
 131134780.826 6  24954099.391   102182953.19443  24954111.766
 111014429.960 8  21125322.828    86504769.24447  21125330.457
 121178607.688 6  23059524.031    94424934.36144  23059532.422
 18  3  9  1 42  0.0000000  0 11G12G24G19G28G30G15G06G02G01G17G13
 133732387.74616  25448431.039
 123596044.853 6  23519502.938    96308480.23744  23519514.199
 106716143.026 8  20307387.961    83155476.19647  20307393.363
 117537386.364 7  22366619.953    91587581.75245  22366626.938
 122354267.894 6  23283246.500    95340997.46944  23283257.293
 127801877.790 6  24319876.445    99585856.05243  24319884.367
 112366316.444 8  21382584.336    87558225.00146  21382595.598
 123534171.277 6  23507760.414    96260397.22344  23507766.578
 131231733.205 6  24972549.766   102258500.53043  24972561.086
 111058265.100 8  21133664.320    86538926.50947  21133671.832
 121250039.548 6  23073117.258    94480595.53544  23073125.063
 18  3  9  1 42 30.0000000  0 11G12G24G19G28G30G15G06G02G01G17G13
 133658027.77116  25434282.531
 123506212.457 6  23502408.945    96238480.99244  23502420.031
 106722727.893 8  20308640.977    83160607.27747  20308646.379
 117566064.733 7  22372077.547    91609928.55445  22372084.063
 122457012.989 6  23302798.070    95421058.56444  23302809.156
 127842789.021 7  24327660.891    99617734.93243  24327669.867
 112289043.838 8  21367879.891    87498012.61446  21367891.328
 123435035.082 7  23488895.289    96183148.28544  23488900.867
 131328953.824 6  24991050.617   102334256.95242  24991062.055
 111102319.334 8  21142047.609    86573254.49547  21142054.887
 121321705.118 7  23086754.344    94536438.81844  23086762.734
 18  3  9  1 43  0.0000000  0 11G12G24G19G28G30G15G06G02G01G17G13
 133583615.813 5  25420121.945   104091181.95343  25420129.809
 123416631.802 6  23485362.094    96168677.92444  23485373.531
 106729739.002 8  20309975.273    83166070.49147  20309980.441
 117594847.217 7  22377554.305    91632356.46445  22377562.109
 122559967.235 7  23322389.453    95501282.63944  23322400.598
 127883993.604 7  24335501.672    99649842.38943  24335510.238
 112212162.361 8  21353250.461    87438104.99546  21353261.547
 123336020.962 7  23470053.703    96105994.46044  23470059.398
 131426440.268 6  25009600.977   102410220.43943  25009612.414
 111146590.895 8  21150472.320    86607751.83447  21150479.305
 121393601.620 7  23100436.055    94592462.05644  23100444.445
 18  3  9  1 43 30.0000000  0 11G12G24G19G28G30G15G06G02G01G17G13
 133509183.59815  25405949.898
 123327305.810 6  23468363.953    96099073.28644  23468374.688
 106737174.532 8  20311389.922    83171864.43047  20311395.500
 117623734.518 7  22383051.469    91654866.05845  22383058.863
 122663128.046 6  23342020.563    95581667.69544  23342031.121
 127925488.356 6  24343398.391    99682175.94343  24343406.898
 112135674.170 8  21338694.781    87378503.84046  21338705.574
 123237130.941 7  23451235.156    96028937.34044  23451241.730
 131524189.284 6  25028202.719   102486388.54143  25028213.453
 111191077.040 8  21158937.555    86642416.37347  21158945.008
 121465725.555 7  23114160.156    94648662.50144  23114169.133
 18  3  9  1 44  0.0000000  0 11G12G24G19G28G30G15G06G02G01G17G13
 133434649.30516  25391764.891
 123238236.421 6  23451413.984    96029668.58944  23451425.305
 106745033.382 8  20312885.422    83177988.23247  20312890.883
 117652727.905 7  22388568.055    91677458.31045  22388575.391
 122766493.631 7  23361689.969    95662212.29244  23361700.527
 127967271.491 6  24351349.359    99714734.19743  24351358.395
 112059582.306 8  21324214.852    87319211.51146  21324226.582
 123138368.219 7  23432441.617    95951979.39744  23432447.313
 131622198.362 6  25046853.398   102562759.30343  25046863.195
 111235776.354 8  21167443.375    86677247.01847  21167450.828
 121538074.023 7  23127928.109    94705037.90544  23127936.793
 18  3  9  1 44 30.0000000  0 11G12G24G19G28G30G15G06G02G01G17G13
 133360000.01616  25377565.375
 123149426.182 6  23434514.391    95960465.83144  23434525.242
 106753313.855 8  20314461.289    83184440.56747  20314466.691
 117681828.382 7  22394106.375    91700134.01045  22394113.184
 122870061.729 7  23381398.680    95742914.71344  23381409.063
 128009340.371 6  24359354.586    99747515.13943  24359363.445
 111983889.435 8  21309811.016    87260230.07746  21309822.453
 123039735.094 7  23413671.961    95875122.46644  23413678.242
 131720464.859 6  25065551.547   102639330.69543  25065563.102
 111280687.013 9  21175989.648    86712242.34447  21175997.160
 121610643.907 7  23141738.094    94761585.84344  23141746.074
 18  3  9  1 45  0.0000000  0 11G12G24G19G28G30G15G06G02G01G17G13
 133285318.82916  25363354.180
 123060877.702 6  23417664.109    95891467.03944  23417675.020
 106762014.404 8  20316116.805    83191220.22747  20316122.090
 117711036.891 7  22399664.352    91722893.88345  22399671.746
 122973830.006 6  23401144.977    95823773.10244  23401155.828
 128051692.534 6  24367414.188    99780516.80643  24367423.223
 111908598.032 8  21295483.547    87201561.47946  21295494.457
 122941233.771 7  23394928.125    95798368.21744  23394933.820
 131818985.880 6  25084299.805   102716100.33343  25084310.832
 111325807.204 8  21184575.938    86747400.94147  21184583.508
 121683431.784 6  23155589.078    94818303.66344  23155597.938
 18  3  9  1 45 30.0000000  0 11G12G24G19G28G30G15G06G02G01G17G13
 133210564.81216  25349127.938
 122972594.029 6  23400864.008    95822674.59744  23400875.035
 106771133.416 8  20317851.969    83198325.97047  20317857.957
 117740354.465 7  22405243.195    91745738.75145  22405250.355
 123077796.293 6  23420928.352    95904785.77344  23420939.789
 128094325.406 6  24375526.969    99813737.20943  24375534.949
 111833710.760 8  21281232.836    87143207.79646  21281243.922
 122842866.936 7  23376209.070    95721718.77044  23376215.703
 131917758.601 6  25103095.672   102793066.09243  25103107.051
 111371134.953 8  21193201.242    86782721.27647  21193208.813
 121756434.529 7  23169481.047    94875188.87644  23169489.203
 18  3  9  1 46  0.0000000  0 11G12G24G19G28G30G15G06G02G01G17G13
 133135743.16116  25334890.109
 122884577.278 6  23384114.500    95754090.13444  23384125.703
 106780669.349 8  20319666.508    83205756.57947  20319672.203
 117769781.920 7  22410843.250    91768669.25145  22410850.293
 123181958.487 6  23440750.367    95985951.12344  23440761.746
 128137236.225 6  24383692.352    99847174.18743  24383700.918
 111759230.379 8  21267059.883    87085171.18046  21267070.324
 122744637.335 7  23357517.250    95645176.26544  23357523.121
 132016780.394 6  25121938.969   102870225.98842  25121950.230
 111416668.394 8  21201865.555    86818201.88247  21201874.063
 121829649.195 7  23183413.492    94932239.25344  23183421.766
 18  3  9  1 46 30.0000000  0 11G12G24G19G28G30G15G06G02G01G17G13
 133060852.100 7  25320639.742   103683826.53052  25320649.363
 122796830.062 6  23367417.250    95685715.70744  23367428.043
 106790621.102 8  20321560.602    83213511.21547  20321565.828
 117799320.356 7  22416464.055    91791686.20445  22416471.273
 123286314.405 6  23460608.875    96067267.40044  23460620.020
 128180423.021 6  24391911.586    99880826.22443  24391919.625
 111685159.535 8  21252964.133    87027453.67746  21252975.395
 122646547.292 7  23338851.383    95568742.51044  23338857.488
 132116048.497 6  25140828.625   102947577.78843  25140840.297
 111462405.140 8  21210569.445    86853840.91547  21210576.898
 121903072.706 7  23197385.867    94989452.34744  23197393.613
 18  3  9  1 47  0.0000000  0 11G12G24G19G28G30G15G06G02G01G17G13
 132985892.49716  25306374.680
 122709354.517 6  23350771.742    95617552.98544  23350783.063
 106800986.494 8  20323533.055    83221588.15447  20323538.574
 117828970.711 7  22422106.273    91814790.37045  22422113.844
 123390861.581 6  23480503.289    96148732.71144  23480514.727
 128223882.686 6  24400181.117    99914690.88043  24400189.742
 111611500.531 8  21238947.508    86970057.09046  21238959.004
 122548599.234 7  23320212.430    95492419.39944  23320218.711
 132215559.927 6  25159765.430   103025119.23143  25159776.457
 111508343.403 8  21219311.531    86889636.97947  21219318.516
 121976701.443 6  23211397.125    95046825.36744  23211404.871
 18  3  9  1 47 30.0000000  0 11G12G24G19G28G30G15G06G02G01G17G13
 132910863.961 6  25292096.469   103566939.02153  25292105.094
 122622153.792 6  23334176.984    95549604.39844  23334188.656
 106811764.663 8  20325583.867    83229986.74347  20325589.328
 117858734.157 7  22427770.813    91837982.68945  22427777.621
 123495598.219 6  23500433.852    96230345.66244  23500444.996
 128267613.104 6  24408502.469    99948766.50643  24408511.152
 111538256.390 8  21225009.563    86912983.77446  21225020.941
 122450796.058 7  23301600.836    95416209.16644  23301607.352
 132315312.329 6  25178748.422   103102848.39943  25178758.688
 111554481.705 8  21228090.836    86925588.92247  21228097.996
 122050532.682 7  23225446.539    95104356.18344  23225454.578
 18  3  9  1 48  0.0000000  0 11G12G24G19G28G30G15G06G02G01G17G13
 132835766.659 6  25277803.625   103508421.72842  25277813.656
 122535230.070 6  23317636.578    95481871.66844  23317647.488
 106822953.828 8  20327713.367    83238705.59447  20327718.418
 117888611.653 7  22433455.938    91861263.85145  22433463.625
 123600521.907 6  23520400.594    96312104.38844  23520411.094
 128311611.794 7  24416875.023    99983051.18143  24416883.531
 111465429.578 8  21211151.102    86856235.63946  21211162.539
 122353140.004 7  23283017.813    95340113.58644  23283023.801
 132415302.824 6  25197775.656   103180763.13043  25197785.922
 111600818.394 8  21236908.648    86961695.44247  21236916.160
 122124563.241 6  23239533.141    95162042.32044  23239541.297
 18  3  9  1 48 30.0000000  0 11G12G24G19G28G30G15G06G02G01G17G13
 132760599.652 5  25263496.031   103449849.99342  25263509.285
 122448586.139 6  23301148.195    95414356.94544  23301159.984
 106834551.633 8  20329920.008    83247742.85747  20329925.234
 117918603.634 7  22439162.945    91884634.22845  22439170.281
 123705630.001 6  23540401.188    96394006.78244  23540412.391
 128355875.678 7  24425298.047   100017542.52643  24425307.141
 111393022.175 8  21197372.125    86799814.31446  21197383.563
 122255633.157 7  23264462.234    95264134.26844  23264468.633
 132515528.166 6  25216847.930   103258860.77543  25216858.781
 111647350.528 8  21245763.242    86997954.26647  21245770.754
 122198789.394 6  23253658.016    95219880.87244  23253666.816
 18  3  9  1 49  0.0000000  0 11G12G24G19G28G30G15G06G02G01G17G13
 132685363.870 6  25249183.805   103391224.78542  25249191.844
 122362224.353 6  23284715.367    95347062.08944  23284725.457
 106846557.752 8  20332204.813    83257098.29147  20332210.215
 117948712.104 7  22444892.219    91908095.38245  22444899.027
 123810920.989 6  23560437.852    96476051.68744  23560448.762
 128400402.838 6  24433771.969   100052238.98043  24433780.770
 111321037.418 8  21183674.188    86743722.32846  21183685.742
 122158278.602 7  23245936.359    95188273.61844  23245942.582
 132615986.168 6  25235964.141   103337139.79843  25235974.875
 111694076.954 8  21254655.133    87034364.48447  21254662.527
 122273208.626 6  23267819.945    95277869.86344  23267828.277
 18  3  9  1 49 30.0000000  0 11G12G24G19G28G30G15G06G02G01G17G13
 132610058.461 5  25234851.258   103332545.33542  25234861.465
 122276146.869 6  23268334.570    95279988.75544  23268345.246
 106858969.558 8  20334566.844    83266769.84047  20334571.602
 117978937.200 7  22450644.016    91931647.40545  22450650.883
 123916392.048 6  23580508.078    96558236.90444  23580519.516
 128445190.431 7  24442295.242   100087138.39443  24442303.340
 111249477.335 8  21170056.734    86687961.26246  21170067.762
 122061078.338 7  23227440.383    95112533.18744  23227445.609
 132716673.634 6  25255123.734   103415597.65443  25255134.762
 111740995.483 8  21263583.133    87070924.39647  21263590.996
 122347817.460 7  23282017.063    95336006.59143  23282025.336
 18  3  9  1 50  0.0000000  0 11G12G24G19G28G30G15G06G02G01G17G13
 132534683.805 6  25220509.688   103273811.86143  25220517.961
 122190356.516 6  23252009.445    95213139.17144  23252020.004
 106871785.830 8  20337005.852    83276756.56647  20337010.902
 118009280.467 7  22456418.820    91955291.52145  22456425.453
 124022041.263 6  23600612.891    96640560.96744  23600623.977
 128490236.025 6  24450866.578   100122238.84043  24450875.496
 111178344.754 8  21156520.578    86632533.31446  21156531.664
 121964035.437 7  23208973.352    95036915.38544  23208979.105
 132817588.150 6  25274327.320   103494232.33543  25274337.469
 111788104.506 8  21272548.086    87107632.73947  21272555.773
 122422612.683 6  23296250.766    95394288.56744  23296258.980
 18  3  9  1 50 30.0000000  0 11G12G24G19G28G30G15G06G02G01G17G13
 132459239.730 6  25206152.039   103215024.31043  25206160.898
 122104855.548 6  23235738.742    95146515.06944  23235749.477
 106885004.811 8  20339520.680    83287057.08147  20339526.609
 118039742.648 7  22462215.508    91979028.28845  22462222.551
 124127866.109 6  23620750.359    96723021.89444  23620761.563
 128535536.736 6  24459486.586   100157538.06143  24459495.445
 111107641.878 8  21143066.242    86577440.20446  21143077.387
 121867151.921 7  23190537.406    94961421.77044  23190542.867
 132918726.707 6  25293573.891   103573041.67043  25293584.391
 111835401.939 8  21281548.227    87144487.88647  21281555.973
 122497591.491 6  23310518.945    95452713.60744  23310526.574
 18  3  9  1 51  0.0000000  0 11G12G24G19G28G30G15G06G02G01G17G13
 132383726.276 6  25191782.203   103156182.68443  25191790.887
 122019646.954 6  23219524.273    95080118.80344  23219535.652
 106898624.760 8  20342112.633    83297670.04447  20342118.387
 118070324.543 7  22468033.898    92002858.34245  22468041.762
 124233864.460 6  23640921.000    96805618.01644  23640932.027
 128581089.870 7  24468155.602   100193034.01244  24468163.875
 111037371.285 8  21129694.758    86522683.92747  21129705.375
 121770430.578 7  23172131.000    94886054.52444  23172137.516
 133020086.596 6  25312861.523   103652023.49343  25312872.434
 111882885.748 8  21290583.898    87181488.26547  21290591.879
 122572750.217 6  23324820.867    95511278.83244  23324829.258
 18  3  9  1 51 30.0000000  0 11G12G24G19G28G30G15G06G02G01G17G13
 132308143.181 6  25177399.391   103097286.78843  25177408.191
 121934733.045 6  23203364.250    95013952.16844  23203376.449
 106912644.286 8  20344780.492    83308594.37147  20344786.188
 118101027.372 7  22473877.125    92026782.63045  22473883.816
 124340034.122 6  23661124.758    96888347.60544  23661136.664
 128626893.414 6  24476871.328   100228725.05343  24476879.953
 110967535.572 8  21116404.695    86468266.51046  21116415.723
 121673873.893 7  23153756.945    94810815.58744  23153763.637
 133121665.020 6  25332191.328   103731175.50543  25332202.766
 111930554.476 8  21299654.805    87218632.73647  21299662.492
 122648085.836 6  23339156.594    95569981.87744  23339165.395
 18  3  9  1 52  0.0000000  0 11G12G24G19G28G30G15G06G02G01G17G13
 132232490.741 6  25163003.773   103038336.85243  25163011.637
 121850116.290 7  23187263.875    94948017.07144  23187274.551
 106927061.842 8  20347524.195    83319828.84447  20347529.480
 118131852.457 7  22479743.531    92050802.19645  22479750.281
 124446373.066 6  23681360.414    96971209.10444  23681372.086
 128672944.673 7  24485634.758   100264609.13343  24485643.500
 110898137.406 8  21103198.813    86414190.03947  21103209.840
 121577484.254 7  23135414.930    94735706.81845  23135421.035
 133223459.580 6  25351562.031   103810495.98543  25351573.469
 111978406.108 8  21308761.000    87255919.74047  21308768.512
 122723595.437 6  23353525.508    95628820.53044  23353533.781
 18  3  9  1 52 30.0000000  0 11G12G24G19G28G30G15G06G02G01G17G13
 132156768.579 6  25148593.875   102979332.55942  25148602.207
 121765798.979 7  23171219.383    94882315.30844  23171229.297
 106941875.103 8  20350342.953    83331371.66247  20350348.590
 118162800.184 7  22485632.094    92074917.31545  22485639.488
 124552878.453 6  23701628.180    97054200.31444  23701639.441
 128719240.509 7  24494443.734   100300683.79743  24494452.770
 110829178.688 8  21090076.094    86360455.99947  21090087.180
 121481263.797 7  23117104.633    94660729.88644  23117110.445
 133325466.951 6  25370973.656   103889982.29642  25370984.391
 112026438.306 8  21317901.695    87293347.44047  21317908.855
 122799275.326 7  23367927.539    95687791.85344  23367935.637
 18  3  9  1 53  0.0000000  0 11G12G24G19G28G30G15G06G02G01G17G13
 132080977.478 6  25134171.320   102920274.56742  25134179.711
 121681783.932 7  23155231.500    94816849.07144  23155241.707
 106957083.600 8  20353237.227    83343222.45347  20353242.512
 118193872.381 7  22491544.359    92099129.41045  22491551.813
 124659548.915 6  23721926.500    97137320.16544  23721938.172
 128765779.122 6  24503300.680   100336947.62443  24503308.836
 110760662.732 8  21077038.164    86307066.96247  21077049.309
 121385215.946 7  23098827.547    94585887.44345  23098833.301
 133427685.245 6  25390424.500   103969632.97042  25390435.645
 112074649.966 8  21327075.578    87330914.97147  21327083.031
 122875123.229 6  23382360.453    95746894.08744  23382368.902
 18  3  9  1 53 30.0000000  0 11G12G24G19G28G30G15G06G02G01G17G13
 132005116.468 6  25119734.719   102861162.06242  25119743.285
 121598073.162 7  23139301.313    94751619.93744  23139311.988
 106972684.795 8  20356206.109    83355379.24647  20356211.219
 118225069.208 7  22497481.406    92123438.63045  22497488.508
 124766381.229 6  23742255.703    97220566.11544  23742267.434
 128812557.286 6  24512202.398   100373398.12444  24512211.434
 110692591.043 8  21064085.000    86254024.10847  21064095.910
 121289342.206 7  23080583.609    94511180.67244  23080588.836
 133530110.913 6  25409915.789   104049445.21943  25409926.699
 112123038.302 8  21336283.516    87368620.17147  21336291.203
 122951135.031 6  23396825.258    95806124.04743  23396833.473
 18  3  9  1 54  0.0000000  0 11G12G24G19G28G30G15G06G02G01G17G13
 131929185.937 6  25105285.742   102801995.40942  25105295.070
 121514669.882 7  23123430.289    94686630.40444  23123440.965
 106988677.239 8  20359248.969    83367840.90547  20359254.020
 118256392.092 7  22503442.320    92147846.08245  22503448.777
 124873373.612 6  23762616.164    97303936.78944  23762627.777
 128859572.488 6  24521147.906   100410033.31143  24521158.348
 110624966.429 8  21051216.117    86201329.62747  21051226.969
 121193645.430 7  23062372.156    94436611.80144  23062377.852
 133632741.607 5  25429446.344   104129417.25943  25429456.785
 112171602.531 8  21345524.813    87406462.43247  21345532.617
 123027307.848 6  23411320.367    95865479.48144  23411329.051
 18  3  9  1 54 30.0000000  0 11G12G24G19G28G30G15G06G02G01G17G13
 131853186.315 6  25090823.055   102742775.01952  25090833.320
 121431576.123 7  23107617.805    94621882.05844  23107628.832
 107005059.468 8  20362366.641    83380606.29647  20362371.867
 118287842.118 7  22509426.242    92172352.60645  22509433.461
 124980523.988 7  23783006.258    97387430.60244  23783017.637
 128906822.544 7  24530139.711   100446851.50743  24530149.742
 110557791.541 8  21038432.938    86148985.58247  21038444.375
 121098128.434 7  23044196.820    94362183.01244  23044201.871
 133735574.814 6  25449014.055   104209547.07043  25449025.258
 112220340.663 8  21354799.633    87444440.20447  21354806.617
 123103639.204 7  23425845.633    95924958.43344  23425853.789
 18  3  9  1 55  0.0000000  0 11G12G24G19G28G30G15G06G02G01G17G13
 131777117.297 6  25076348.359   102683500.53042  25076357.277
 121348794.923 7  23091865.406    94557377.26944  23091875.730
 107021829.540 8  20365557.672    83393673.90447  20365562.840
 118319420.371 7  22515435.906    92196959.05445  22515443.066
 125087829.835 6  23803425.555    97471045.53644  23803437.637
 128954304.593 7  24539175.680   100483850.48744  24539185.125
 110491068.415 8  21025736.242    86096993.55747  21025747.035
 121002793.146 7  23026054.188    94287895.81744  23026060.527
 133838607.359 6  25468620.055   104289832.18842  25468631.727
 112269250.034 8  21364106.617    87482551.41447  21364114.422
 123180125.384 6  23440400.844    95984558.05244  23440408.707
 18  3  9  1 55 30.0000000  0 11G12G24G19G28G30G15G06G02G01G17G13
 131700978.544 6  25061859.414   102624171.81943  25061868.566
 121266328.282 7  23076171.805    94493117.58544  23076182.949
 107038985.474 8  20368822.406    83407042.17547  20368827.867
 118351127.287 7  22521469.656    92221665.72945  22521476.348
 125195288.748 6  23823874.453    97554779.76344  23823886.066
 129002015.884 7  24548255.523   100521028.10343  24548263.563
 110424799.452 8  21013125.883    86045355.42247  21013136.793
 120907642.363 7  23007947.523    94213752.37844  23007953.277
 133941836.662 6  25488264.695   104370270.71242  25488275.840
 112318329.277 8  21373446.141    87520794.99546  21373453.711
 123256763.081 6  23454984.031    96044275.70244  23454992.188
 18  3  9  1 56  0.0000000  0 11G12G24G19G28G30G15G06G02G01G17G13
 131624770.598 7  25047357.578   102564789.06043  25047365.793
 121184178.380 7  23060539.484    94429104.70844  23060549.574
 107056525.752 8  20372159.781    83420709.94647  20372165.359
 118382964.281 7  22527528.289    92246473.79945  22527535.215
 125302898.753 6  23844351.797    97638631.72344  23844363.176
 129049953.826 6  24557377.633   100558382.31244  24557386.316
 110358987.163 8  21000601.625    85994073.15147  21000612.828
 120812678.508 7  22989876.477    94139754.60844  22989882.699
 134045260.236 6  25507945.750   104450860.56243  25507956.719
 112367576.783 8  21382817.805    87559169.68047  21382825.727
 123333549.337 7  23469596.141    96104109.14744  23469604.648
 18  3  9  1 56 30.0000000  0 11G12G24G19G28G30G15G06G02G01G17G13
 131548493.476 7  25032842.523   102505352.44443  25032851.383
 121102348.386 7  23044967.055    94365341.11244  23044978.902
 107074448.921 8  20375570.969    83434676.07147  20375576.313
 118414932.161 7  22533610.047    92271383.83745  22533618.027
 125410657.254 6  23864858.117    97722599.40044  23864869.262
 129098115.513 7  24566541.836   100595910.90543  24566551.691
 110293633.649 8  20988165.508    85943148.36847  20988176.242
 120717903.941 7  22971841.922    94065904.34845  22971847.969
 134148875.141 6  25527662.563   104531599.48042  25527673.473
 112416990.478 8  21392220.844    87597673.87047  21392228.648
 123410480.811 6  23484236.063    96164055.73043  23484244.102
 18  3  9  1 57  0.0000000  0 11G12G24G19G28G30G15G06G02G01G17G13
 131472146.672 7  25018313.844   102445861.49843  25018322.703
 121020840.160 7  23029456.359    94301828.24044  23029467.504
 107092752.966 8  20379053.984    83448938.98347  20379059.387
 118447031.930 7  22539719.211    92296396.62645  22539726.605
 125518561.851 6  23885391.289    97806680.88343  23885403.020
 129146498.242 7  24575748.906   100633611.69843  24575756.887
 110228741.092 8  20975816.992    85892582.77447  20975828.078
 120623320.917 7  22953842.859    93992203.33245  22953849.082
 134252678.415 6  25547416.125   104612485.20342  25547426.391
 112466568.343 8  21401655.109    87636305.97747  21401663.148
 123487554.378 6  23498902.273    96224113.04043  23498910.781
 18  3  9  1 57 30.0000000  0 11G12G24G19G28G30G15G06G02G01G17G13
 131395730.253 7  25003772.406   102386316.31943  25003780.738
 120939656.487 7  23014008.656    94238568.27745  23014018.980
 107111436.034 8  20382609.289    83463497.24447  20382614.398
 118479264.818 7  22545853.609    92321513.16545  22545860.242
 125626610.541 6  23905952.820    97890874.64343  23905963.262
 129195099.733 7  24584998.656   100671482.99043  24585006.578
 110164311.973 8  20963556.570    85842378.30247  20963567.422
 120528931.981 7  22935881.234    93918653.55245  22935887.281
 134356667.772 6  25567203.258   104693515.96143  25567214.813
 112516308.839 8  21411120.688    87675064.81747  21411128.258
 123564766.761 6  23513595.047    96284278.53244  23513603.906
 18  3  9  1 58  0.0000000  0 11G12G24G19G28G30G15G06G02G01G17G13
 131319244.773 7  24989217.352   102326717.32343  24989226.094
 120858799.488 7  22998621.602    94175562.85044  22998632.688
 107130496.744 8  20386236.305    83478349.75747  20386241.355
 118511631.750 7  22552012.680    92346734.16345  22552019.898
 125734801.090 6  23926540.031    97975178.95843  23926551.000
 129243917.279 6  24594287.375   100709522.61544  24594296.176
 110100348.704 8  20951384.539    85792536.82947  20951395.449
 120434739.860 7  22917957.891    93845257.14345  22917963.762
 134460840.468 6  25587027.336   104774689.48142  25587038.188
 112566210.516 8  21420616.508    87713949.24647  21420624.020
 123642115.117 6  23528314.461    96344549.96744  23528323.203
 18  3  9  1 58 30.0000000  0 11G12G24G19G28G30G15G06G02G01G17G13
 131242689.856 6  24974649.117   102267064.18542  24974658.152
 120778271.557 7  22983297.852    94112813.85145  22983309.055
 107149932.496 8  20389934.766    83493494.50947  20389940.461
 118544133.354 7  22558196.695    92372060.08345  22558204.207
 125843130.699 6  23947155.836    98059591.66644  23947165.047
 129292948.016 6  24603617.594   100747728.36444  24603626.629
 110036853.074 8  20939301.688    85743059.74047  20939312.832
 120340746.281 7  22900071.188    93772015.44345  22900076.941
 134565193.561 6  25606885.117   104856003.71643  25606896.438
 112616270.573 8  21430142.453    87752957.09947  21430150.082
 123719596.050 6  23543059.031    96404924.69144  23543066.777
 18  3  9  1 59  0.0000000  0 11G12G24G19G28G30G15G06G02G01G17G13
 131166066.071 6  24960067.930   102207357.44842  24960076.496
 120698075.372 7  22968036.953    94050323.34945  22968047.395
 107169742.686 8  20393704.359    83508931.03747  20393709.762
 118576771.355 7  22564407.969    92397492.29145  22564415.129
 125951597.802 6  23967794.805    98144111.52443  23967805.715
 129342189.780 7  24612988.219   100786098.53343  24612997.313
 109973827.973 8  20927308.211    85693949.30447  20927319.766
 120246954.564 7  22882222.828    93698931.01745  22882229.402
 134669724.809 6  25626775.734   104937456.58642  25626787.934
 112666488.054 8  21439699.008    87792087.61347  21439705.758
 123797206.670 6  23557827.852    96465400.50844  23557836.242
 18  3  9  1 59 30.0000000  0 11G12G24G19G28G30G15G06G02G01G17G13
 131089373.204 6  24945474.766   102147596.80442  24945482.160
 120618213.582 7  22952839.813    93988093.41045  22952850.547
 107189924.765 8  20397545.102    83524657.35047  20397550.504
 118609546.361 7  22570645.602    92423031.26645  22570652.234
 126060199.376 6  23988460.906    98228736.10643  23988472.578
 129391638.995 7  24622398.469   100824630.36243  24622407.387
 109911274.994 8  20915404.703    85645206.76047  20915416.375
 120153366.537 7  22864413.625    93626005.32045  22864420.023
 134774431.275 6  25646701.211   105019046.08242  25646712.824
 112716860.421 8  21449283.758    87831338.81646  21449291.563
 123874943.147 6  23572620.219    96525974.36244  23572628.492
 18  3  9  2  0  0.0000000  0 11G12G24G19G28G30G15G06G02G01G17G13
 131012611.535 6  24930867.406   102087782.53643  24930875.445
 120538688.515 7  22937706.227    93926125.85945  22937717.488
 107210477.405 8  20401455.938    83540672.40647  20401461.926
 118642459.194 7  22576908.594    92448677.63345  22576915.813
 126168933.784 6  24009152.414    98313464.17343  24009163.559
 129441293.874 7  24631846.805   100863322.44143  24631856.367
 109849196.967 8  20903592.055    85596834.30447  20903603.316
 120059985.212 7  22846643.703    93553240.70045  22846649.750
 134879310.632 5  25666659.070   105100770.17542  25666670.508
 112767386.773 8  21458899.086    87870710.01246  21458906.422
 123952803.153 7  23587437.008    96586644.49344  23587445.223
 18  3  9  2  0 30.0000000  0 11G12G24G19G28G30G15G06G02G01G17G13
 130935781.020 6  24916246.484   102027914.64143  24916254.641
 120459502.815 7  22922637.875    93864422.74645  22922648.609
 107231398.664 8  20405437.219    83556974.70647  20405442.270
 118675511.147 7  22583198.000    92474432.38245  22583204.398
 126277798.452 6  24029869.609    98398293.74944  24029879.934
 129491151.539 7  24641334.078   100902172.57843  24641343.465
 109787595.838 8  20891869.539    85548833.45647  20891880.859
 119966812.740 7  22828913.500    93480638.82145  22828919.840
 134984360.270 4  25686651.219   105182575.99752  25686660.254
 112818064.881 8  21468542.813    87910199.46046  21468549.973
 124030783.191 6  23602275.164    96647408.13543  23602284.258
 18  3  9  2  1  0.0000000  0 11G12G24G19G28G30G15G06G02G01G17G13
 130858881.548 6  24901612.883   101967992.98543  24901622.387
 120380658.672 7  22907635.258    93802985.78445  22907645.348
 107252686.768 8  20409488.141    83573562.85147  20409494.012
 118708702.862 7  22589514.156    92500296.06445  22589520.789
 126386790.941 6  24050610.102    98483222.94643  24050621.012
 129541209.139 7  24650860.625   100941178.45043  24650869.660
 109726473.619 8  20880238.375    85501205.78147  20880249.051
 119873851.101 7  22811223.109    93408201.22345  22811229.918
 135089577.135 5  25706671.633   105264568.47852  25706682.602
 112868892.759 8  21478215.016    87949805.60546  21478222.586
 124108880.133 6  23617136.445    96708262.87144  23617144.953
 18  3  9  2  1 30.0000000  0 10G12G24G19G28G30G15G06G02G17G13
 130781913.865 6  24886966.055   101908018.18343  24886974.914
 120302158.857 7  22892696.977    93741817.12545  22892707.008
 107274340.220 8  20413608.563    83590435.68747  20413613.848
 118742035.958 7  22595856.648    92526269.90345  22595864.336
 126495909.271 6  24071374.641    98568250.21643  24071385.258
 129591464.073 7  24660423.617   100980338.13043  24660432.887
 109665832.791 8  20868698.727    85453953.21847  20868710.281
 119781103.144 7  22793574.109    93335930.13445  22793580.039
 112919869.452 8  21487915.031    87989527.71246  21487923.012
 124187090.948 6  23632020.539    96769206.35244  23632028.109
 18  3  9  2  2  0.0000000  0 10G12G24G19G28G30G15G06G02G17G13
 130704877.913 6  24872306.953   101847990.20543  24872316.047
 120224005.675 7  22877824.641    93680918.59345  22877835.434
 107296357.153 8  20417798.414    83607591.75047  20417803.816
 118775511.239 7  22602227.141    92552354.53245  22602233.715
 126605151.241 6  24092161.734    98653373.81243  24092172.820
 129641913.812 7  24670023.703   101019649.60543  24670032.621
 109605675.562 8  20857251.352    85407077.48347  20857261.969
 119688571.611 7  22775966.023    93263827.68945  22775971.777
 112970992.836 8  21497643.734    88029364.12646  21497651.539
 124265412.605 6  23646924.453    96830236.21144  23646932.668
 18  3  9  2  2 30.0000000  0 10G12G24G19G28G30G15G06G02G17G13
 130627773.418 6  24857635.008   101787908.82943  24857643.398
 120146201.224 7  22863019.500    93620291.77545  22863029.180
 107318735.373 8  20422056.945    83625029.33547  20422062.172
 118809129.233 7  22608624.547    92578550.37645  22608631.297
 126714513.973 6  24112973.164    98738591.52443  24112984.602
 129692555.199 6  24679659.922   101059110.41343  24679669.543
 109546003.577 8  20845895.820    85360579.86147  20845906.379
 119596258.361 7  22758399.258    93191895.33445  22758405.656
 113022260.782 8  21507399.781    88069313.17746  21507407.352
 124343841.890 6  23661848.617    96891349.93144  23661856.832
 18  3  9  2  3  0.0000000  0 10G12G24G19G28G30G15G06G02G17G13
 130550600.874 6  24842949.680   101727774.40343  24842957.719
 120068747.640 7  22848279.383    93559938.36545  22848290.234
 107341473.201 8  20426383.734    83642747.13347  20426388.727
 118842891.316 7  22615049.133    92604858.49445  22615056.352
 126823995.361 6  24133806.930    98823901.69744  24133818.660
 129743385.913 6  24689332.461   101098718.73943  24689342.492
 109486819.090 8  20834633.492    85314462.10347  20834644.871
 119504165.918 7  22740874.453    93120135.04045  22740880.441
 113073671.554 8  21517182.781    88109373.52746  21517190.703
 124422375.296 6  23676792.945    96952544.77543  23676801.102
 18  3  9  2  3 30.0000000  0 10G12G24G19G28G30G15G06G02G17G13
 130473360.036 6  24828250.602   101667586.74642  24828259.344
 119991648.183 7  22833608.438    93499860.88445  22833618.879
 107364568.658 8  20430778.555    83660743.59947  20430783.898
 118876798.177 7  22621501.398    92631279.42845  22621508.324
 126933593.009 6  24154663.313    98909302.47844  24154674.164
 129794403.174 6  24699040.883   101138472.41743  24699050.270
 109428124.176 8  20823464.148    85268725.84047  20823475.469
 119412296.652 7  22723392.477    93048548.65445  22723398.055
 113125223.442 8  21526993.055    88149543.83646  21527000.449
 124501009.737 7  23691756.922    97013818.35344  23691765.313
 18  3  9  2  4  0.0000000  0 10G12G24G19G28G30G15G06G02G17G13
 130396051.538 5  24813538.258   101607346.40743  24813548.113
 119914904.682 7  22819004.563    93440060.79345  22819014.945
 107388020.485 8  20435241.258    83679017.76047  20435246.484
 118910851.093 7  22627981.594    92657814.16845  22627988.168
 127043304.907 6  24175540.828    98994792.25943  24175551.270
 129845604.198 7  24708783.953   101178369.29743  24708793.398
 109369921.097 8  20812388.383    85223372.82547  20812399.176
 119320652.806 7  22705953.336    92977137.91045  22705959.031
 113176914.939 8  21536829.555    88189822.92846  21536836.949
 124579742.503 7  23706739.148    97075168.55044  23706747.773
 18  3  9  2  4 30.0000000  0 10G12G24G19G28G30G15G06G02G17G13
 130318675.226 5  24798814.617   101547053.22042  24798824.063
 119838519.516 7  22804468.617    93380539.91745  22804479.117
 107411826.484 8  20439771.375    83697567.90947  20439776.719
 118945051.087 7  22634489.273    92684463.51345  22634496.609
 127153128.458 6  24196439.125    99080369.06043  24196450.387
 129896986.323 6  24718562.805   101218407.30243  24718571.605
 109312211.664 8  20801406.797    85178404.47147  20801417.707
 119229236.967 7  22688556.945    92905904.83545  22688563.168
 113228744.458 8  21546692.430    88230209.57947  21546699.766
 124658570.261 7  23721739.406    97136592.74943  23721748.031
 18  3  9  2  5  0.0000000  0 10G12G24G19G28G30G15G06G02G17G13
 130241231.190 5  24784076.938   101486707.33442  24784087.320
 119762495.296 7  22790002.031    93321300.29645  22790012.414
 107435984.805 8  20444368.453    83716392.58947  20444374.207
 118979398.749 7  22641024.984    92711227.91645  22641032.965
 127263061.313 6  24217358.242    99166031.02343  24217369.621
 129948546.599 6  24728374.008   101258584.11743  24728383.336
 109254997.810 8  20790519.234    85133822.27547  20790529.969
 119138051.383 7  22671204.930    92834851.17545  22671210.977
 113280709.523 8  21556580.742    88270701.85146  21556588.547
 124737489.604 6  23736757.203    97198088.32944  23736766.121
 18  3  9  2  5 30.0000000  0 10G12G24G19G28G30G15G06G02G17G13
 130163720.369 6  24769327.484   101426309.34242  24769336.930
 119686833.996 7  22775603.164    93262343.47245  22775614.367
 107460493.927 8  20449032.867    83735490.62047  20449038.152
 119013895.521 7  22647589.953    92738108.50845  22647597.406
 127373101.583 6  24238298.375    99251776.68743  24238309.754
 130000282.865 6  24738218.641   101298898.06343  24738228.086
 109198282.083 8  20779726.563    85089628.22647  20779737.004
 119047098.788 7  22653897.188    92763979.07445  22653902.824
 113332809.260 8  21566495.328    88311299.06146  21566502.781
 124816497.979 6  23751792.375    97259653.27543  23751801.000
 18  3  9  2  6  0.0000000  0 10G12G24G19G28G30G15G06G02G17G13
 130086142.013 6  24754565.172   101365858.78343  24754574.383
 119611539.100 7  22761275.117    93203672.15745  22761286.555
 107485351.626 8  20453763.008    83754860.27247  20453768.000
 119048542.059 7  22654183.117    92765105.80745  22654190.102
 127483246.497 6  24259258.578    99337603.90344  24259269.957
 130052191.845 6  24748097.039   101339346.58043  24748106.367
 109142065.942 8  20769028.797    85045823.47447  20769039.707
 118956381.272 7  22636634.414    92693290.15145  22636640.051
 113385041.416 8  21576434.539    88351999.44846  21576442.285
 124895591.749 7  23766842.750    97321284.77143  23766852.254
 18  3  9  2  6 30.0000000  0 10G12G24G19G28G30G15G06G02G17G13
 130008496.884 6  24739790.547   101305356.14843  24739798.293
 119536611.845 7  22747018.094    93145287.32345  22747028.359
 107510556.374 8  20458559.188    83774500.35147  20458564.238
 119083339.433 7  22660805.242    92792220.63345  22660811.992
 127593493.895 6  24280237.891    99423510.95643  24280248.859
 130104271.218 6  24758007.367   101379927.89343  24758016.637
 109086351.555 8  20758426.844    85002409.69547  20758437.871
 118865901.143 7  22619416.406    92622786.19545  22619422.336
 113437404.858 8  21586399.227    88392802.14446  21586406.504
 124974768.295 6  23781910.102    97382980.76343  23781918.551
 18  3  9  2  7  0.0000000  0 10G12G24G19G28G30G15G06G02G17G13
 129930784.978 6  24725001.180   101244801.48442  24725010.332
 119462055.316 7  22732830.297    93087191.35645  22732840.797
 107536106.265 8  20463420.914    83794409.36447  20463426.434
 119118288.716 7  22667455.539    92819453.84145  22667462.465
 127703841.535 6  24301236.430    99509496.11743  24301247.516
 130156518.410 7  24767949.820   101420639.98543  24767958.973
 109031140.992 8  20747920.695    84959388.51247  20747931.371
 118775660.826 7  22602244.500    92552469.10845  22602250.430
 113489897.325 8  21596387.820    88433705.37146  21596395.391
 125054024.129 6  23796991.211    97444738.53143  23797000.188
 18  3  9  2  7 30.0000000  0 10G12G24G19G28G30G15G06G02G17G13
 129853006.284 6  24710200.531   101184194.80442  24710209.449
 119387871.136 7  22718713.289    93029385.53945  22718724.141
 107561999.200 8  20468348.180    83814585.69747  20468353.641
 119153390.858 7  22674135.680    92846806.16245  22674141.609
 127814286.913 6  24322253.406    99595557.43743  24322264.785
 130208930.292 7  24777923.727   101461480.40243  24777932.938
 108976435.929 8  20737510.508    84916761.21547  20737522.004
 118685662.523 7  22585118.438    92482340.61445  22585124.133
 113542517.263 8  21606401.398    88474707.93146  21606408.324
 125133356.121 6  23812088.180    97506555.68443  23812096.863
 18  3  9  2  8  0.0000000  0 10G12G24G19G28G30G15G06G02G17G13
 129775161.472 6  24695388.305   101123536.60943  24695395.641
 119314062.014 7  22704667.648    92971871.96445  22704677.914
 107588233.439 8  20473340.617    83835027.97547  20473345.785
 119188646.868 7  22680844.180    92874278.37545  22680850.930
 127924827.796 6  24343288.719    99681693.22043  24343299.746
 130261504.184 7  24787928.406   101502447.06143  24787936.738
 108922238.420 8  20727196.781    84874529.42747  20727207.867
 118595908.647 7  22568039.016    92412402.58145  22568044.711
 113595263.099 8  21616438.203    88515808.59946  21616445.949
 125212761.478 6  23827198.680    97568429.96143  23827207.539
 18  3  9  2  8 30.0000000  0 10G12G24G19G28G30G15G06G02G17G13
 129697250.643 6  24680561.063   101062826.94443  24680569.746
 119240629.989 7  22690694.352    92914652.24345  22690705.086
 107614807.278 8  20478397.266    83855734.86947  20478402.727
 119224057.840 7  22687581.969    92901871.33045  22687589.656
 128035461.751 6  24364341.273    99767901.50443  24364352.301
 130314237.293 6  24797963.086   101543537.77543  24797971.828
 108868550.267 8  20716980.703    84832694.52647  20716991.262
 118506401.543 7  22551006.391    92342656.82145  22551011.676
 113648133.181 8  21626499.063    88557006.07446  21626506.516
 125292236.849 6  23842322.367    97630358.81343  23842331.402
 18  3  9  2  9  0.0000000  0 10G12G24G19G28G30G15G06G02G17G13
 129619274.032 6  24665723.398   101002066.09343  24665731.320
 119167577.924 7  22676792.305    92857728.60045  22676802.922
 107641718.839 8  20483518.438    83876704.93647  20483523.781
 119259624.688 7  22694350.203    92929585.74545  22694358.242
 128146186.743 6  24385411.516    99854180.73643  24385423.305
 130367127.202 6  24808027.625   101584750.64843  24808036.895
 108815373.517 8  20706861.453    84791258.12947  20706871.777
 118417143.605 7  22534020.914    92273105.22545  22534026.258
 113701125.658 8  21636583.719    88598298.92846  21636591.055
 125371779.407 6  23857457.828    97692340.00943  23857467.684
 18  3  9  2  9 30.0000000  0 10G12G24G19G28G30G15G06G02G17G13
 129541231.627 6  24650871.375   100941253.89842  24650880.410
 119094908.015 7  22662964.547    92801102.71545  22662974.520
 107668966.288 8  20488703.461    83897936.72147  20488708.160
 119295348.162 7  22701148.422    92957422.20045  22701156.051
 128257000.303 6  24406499.281    99940528.95143  24406510.309
 130420171.222 7  24818120.930   101626083.64343  24818130.375
 108762709.933 8  20696839.836    84750221.60247  20696850.629
 118328136.996 7  22517083.297    92203749.47745  22517089.578
 113754239.449 8  21646690.805    88639686.30646  21646698.082
 125451385.808 6  23872608.242    97754370.97643  23872616.398
 18  3  9  2 10  0.0000000  0 10G12G24G19G28G30G15G06G02G17G13
 129463123.760 6  24636008.664   100880390.70843  24636016.762
 119022622.523 7  22649208.703    92744776.38345  22649218.852
 107696547.956 8  20493951.898    83919428.94447  20493957.184
 119331229.539 7  22707977.141    92985381.69744  22707984.594
 128367900.167 6  24427602.336   100026944.44143  24427613.598
 130473366.269 7  24828244.484   101667534.31643  24828253.051
 108710561.328 8  20686916.102    84709586.35047  20686926.953
 118239384.532 7  22500194.227    92134591.74945  22500199.746
 113807472.230 8  21656820.711    88681166.40546  21656827.930
 125531053.163 6  23887767.477    97816449.42343  23887776.043
 18  3  9  2 10 30.0000000  0 10G12G24G19G28G30G15G06G02G17G13
 129384951.004 6  24621131.492   100819476.98143  24621140.469
 118950723.532 7  22635526.750    92688751.22845  22635537.250
 107724461.963 8  20499263.961    83941180.12947  20499269.246
 119367269.473 7  22714835.469    93013464.75745  22714842.160
 128478883.925 6  24448721.563   100113425.28943  24448733.000
 130526709.682 7  24838396.555   101709100.55543  24838405.707
 108658929.599 8  20677090.852    84669353.85747  20677101.996
 118150887.871 7  22483353.188    92065633.34845  22483359.586
 113860822.503 8  21666972.398    88722738.05746  21666979.734
 125610778.293 6  23902938.289    97878572.89243  23902946.621
 18  3  9  2 11  0.0000000  0 10G12G24G19G28G30G15G06G02G17G13
 129306713.624 6  24606244.766   100758512.84143  24606253.098
 118879213.945 7  22621919.055    92633029.50945  22621929.027
 107752706.219 8  20504638.555    83963188.65747  20504643.840
 119403469.259 7  22721724.398    93041672.38744  22721730.270
 128589949.489 6  24469857.078   100199969.85143  24469868.164
 130580199.240 7  24848575.398   101750780.74543  24848583.848
 108607816.699 8  20667364.336    84629525.65647  20667375.539
 118062649.945 7  22466562.570    91996876.55945  22466568.852
 113914288.856 8  21677147.070    88764400.16346  21677154.465
 125690558.534 6  23918120.188    97940739.28643  23918128.285
 18  3  9  2 11 30.0000000  0 10G12G24G19G28G30G15G06G02G17G13
 129228411.518 6  24591343.930   100697498.31443  24591352.262
 118808095.428 7  22608385.258    92577612.51645  22608395.230
 107781278.697 8  20510075.570    83985452.94647  20510081.324
 119439829.670 7  22728643.078    93070005.18344  22728649.359
 128701094.270 6  24491007.008   100286576.17443  24491018.680
 130633831.766 7  24858779.594   101792572.30943  24858788.570
 108557224.108 8  20657737.023    84590102.89047  20657747.406
 117974672.731 7  22449821.094    91928322.93545  22449826.906
 113967869.736 8  21687343.086    88806151.50446  21687350.480
 125770390.352 6  23933311.969    98002945.88943  23933320.066
 18  3  9  2 12  0.0000000  0 10G12G24G19G28G30G15G06G02G17G13
 129150044.945 6  24576431.664   100636433.52643  24576438.824
 118737370.575 7  22594926.734    92522502.27545  22594936.941
 107810177.459 8  20515574.719    84007971.47547  20515580.648
 119476351.670 7  22735591.852    93098463.87944  22735598.484
 128812315.640 6  24512171.672   100373242.18143  24512182.875
 130687604.458 6  24869011.852   101834473.09243  24869020.301
 108507153.361 8  20648208.859    84551086.75847  20648219.711
 117886958.305 7  22433129.617    91859974.05845  22433135.723
 114021563.216 8  21697560.891    88847990.58646  21697568.051
 125850270.334 6  23948512.766    98065190.03043  23948521.801
 18  3  9  2 12 30.0000000  0 10G12G24G19G28G30G15G06G02G17G13
 129071614.564 7  24561506.430   100575319.00642  24561514.703
 118667041.733 7  22581544.063    92467700.60745  22581553.449
 107839401.167 8  20521136.352    84030743.21347  20521141.637
 119513036.080 7  22742572.789    93127049.12744  22742580.125
 128923611.891 5  24533350.484   100459966.51143  24533361.863
 130741514.639 6  24879271.266   101876480.98643  24879279.891
 108457606.605 8  20638780.336    84512478.92047  20638791.246
 117799509.196 7  22416488.758    91791831.93545  22416493.926
 114075368.039 8  21707798.984    88889916.43446  21707806.730
 125930196.205 6  23963721.375    98127469.89243  23963731.289
 18  3  9  2 13  0.0000000  0 10G12G24G19G28G30G15G06G02G17G13
 128993120.694 7  24546569.688   100514154.98343  24546577.082
 118597110.871 7  22568235.500    92413209.05345  22568246.586
 107868947.971 8  20526758.859    84053766.71347  20526764.086
 119549884.189 7  22749584.914    93155761.94044  22749591.547
 129034980.600 6  24554543.336   100546747.32443  24554554.480
 130795559.947 7  24889555.219   101918594.21043  24889564.430
 108408585.653 8  20629451.867    84474280.80447  20629463.129
 117712327.709 7  22399898.484    91723898.35245  22399903.711
 114129282.295 8  21718058.641    88931927.54746  21718066.035
 126010164.682 6  23978939.398    98189783.00743  23978948.492
 18  3  9  2 13 30.0000000  0 10G12G24G19G28G30G15G06G02G17G13
 128914563.565 7  24531620.281   100452941.65643  24531628.320
 118527580.668 7  22555004.516    92359029.71345  22555015.016
 107898815.845 8  20532441.828    84077040.39847  20532447.055
 119586896.758 7  22756628.695    93184602.88445  22756635.797
 129146419.357 6  24575750.430   100633582.67943  24575760.520
 130849737.593 7  24899865.117   101960810.53643  24899874.270
 108360092.025 8  20620223.930    84436493.58947  20620234.547
 117625416.149 7  22383359.563    91656175.10645  22383365.199
 114183304.415 8  21728338.992    88974022.70946  21728346.035
 126090172.719 6  23994163.898    98252126.90843  23994173.402
 18  3  9  2 14  0.0000000  0 10G12G24G19G28G30G15G06G02G17G13
 128835943.441 7  24516659.570   100391679.28443  24516667.727
 118458453.001 7  22541850.836    92305164.02645  22541861.160
 107929002.597 8  20538186.664    84100562.56647  20538192.066
 119624074.720 7  22763703.430    93213572.72445  22763711.059
 129257925.718 6  24596968.914   100720470.77243  24596979.766
 130904044.546 7  24910199.766   102003127.62543  24910208.684
 108312127.278 8  20611096.617    84399118.49647  20611107.586
 117538776.650 7  22366872.734    91588663.83745  22366878.371
 114237433.060 8  21738639.383    89016200.88846  21738647.422
 126170217.252 6  24009395.703    98314499.24343  24009405.266
 18  3  9  2 14 30.0000000  0 10G12G24G19G28G30G15G06G02G17G13
 128757260.826 7  24501686.445   100330368.18543  24501695.070
 118389730.201 7  22528772.805    92251613.81545  22528783.129
 107959506.558 8  20543991.250    84124331.90547  20543996.594
 119661419.136 7  22770809.961    93242672.24545  22770817.648
 129369497.427 5  24618199.984   100807409.75643  24618211.012
 130958478.156 6  24920557.859   102045543.38943  24920567.188
 108264693.058 8  20602069.977    84362156.79547  20602080.945
 117452411.159 7  22350438.977    91521366.08345  22350443.852
 114291666.339 8  21748959.727    89058460.59446  21748966.594
 126250295.362 6  24024634.773    98376897.77243  24024642.637
 18  3  9  2 15  0.0000000  0 10G12G24G19G28G30G15G06G02G17G13
 128678515.689 7  24486701.680   100269008.36543  24486710.480
 118321414.413 7  22515772.336    92198380.76445  22515782.719
 107990325.871 8  20549855.750    84148346.96747  20549861.094
 119698930.774 7  22777947.945    93271902.08444  22777955.457
 129481132.268 5  24639443.234   100894397.97542  24639454.496
 131013035.863 6  24930939.156   102088055.87143  24930949.480
 108217791.129 8  20593144.883    84325609.87247  20593155.793
 117366322.646 7  22334055.969    91454284.16245  22334061.371
 114346002.952 8  21759299.289    89100800.81746  21759306.625
 126330404.219 6  24039879.086    98439320.24343  24039887.652
 18  3  9  2 15 30.0000000  0 10G12G24G19G28G30G15G06G02G17G13
 128599708.703 6  24471704.523   100207600.37043  24471713.676
 118253508.083 7  22502850.820    92145466.76945  22502860.383
 108021458.511 8  20555780.102    84172606.17947  20555785.855
 119736610.818 7  22785117.945    93301263.15244  22785125.574
 129592827.903 5  24660699.281   100981433.48342  24660709.488
 131067714.658 6  24941344.273   102130662.68643  24941353.953
 108171423.034 8  20584321.281    84289478.92547  20584332.367
 117280512.710 7  22317726.828    91387419.31845  22317732.113
 114400441.079 8  21769658.734    89143220.15246  21769666.012
 126410540.329 6  24055128.695    98501763.94643  24055137.145
 18  3  9  2 16  0.0000000  0 10G12G24G19G28G30G15G06G02G17G13
 128520840.316 7  24456697.516   100146144.53343  24456705.379
 118186013.261 7  22490006.961    92092873.42745  22490017.109
 108052902.850 8  20561763.836    84197108.27447  20561769.121
 119774460.199 7  22792320.383    93330756.16544  22792327.191
 129704581.978 5  24681964.719   101068514.62442  24681975.336
 131122511.935 6  24951770.758   102173361.82343  24951781.258
 108125590.373 8  20575599.359    84253765.18847  20575610.270
 117194984.131 7  22301451.000    91320773.71145  22301456.285
 114454979.167 8  21780036.789    89185717.37546  21780044.418
 126490700.464 6  24070382.367    98564226.36143  24070390.699
 18  3  9  2 16 30.0000000  0 10G12G24G19G28G30G15G06G02G17G13
 128441910.707 7  24441677.258   100084641.00643  24441685.941
 118118931.939 7  22477241.695    92040602.28345  22477251.375
 108084657.247 8  20567806.461    84221851.97047  20567811.922
 119812479.649 7  22799554.820    93360381.69444  22799562.156
 129816392.127 6  24703241.367   101155639.42343  24703252.277
 131177424.883 6  24962221.758   102216151.12243  24962230.969
 108080294.528 8  20566979.930    84218469.75947  20566991.133
 117109738.670 7  22285229.680    91254348.71845  22285234.906
 114509615.922 8  21790434.172    89228291.47146  21790441.273
 126570882.082 6  24085640.594    98626705.52743  24085649.629
 18  3  9  2 17  0.0000000  0 10G12G24G19G28G30G15G06G02G17G13
 128362920.143 7  24426646.633   100023089.96143  24426654.203
 118052266.787 7  22464555.898    91988655.44145  22464565.930
 108116719.297 8  20573907.633    84246835.39747  20573912.977
 119850670.250 7  22806823.242    93390140.60944  22806829.875
 129928256.128 6  24724528.195   101242806.17543  24724539.047
 131232451.133 6  24972693.844   102259028.72743  24972702.000
 108035537.311 8  20558463.102    84183594.03847  20558473.895
 117024778.771 7  22269062.234    91188146.24045  22269067.520
 114564349.811 8  21800849.227    89270941.26746  21800856.914
 126651082.256 6  24100902.547    98689199.17143  24100910.645
 18  3  9  2 17 30.0000000  0 10G12G24G19G28G30G15G06G02G17G13
 128283869.311 6  24411602.805    99961491.93943  24411611.488
 117986019.736 7  22451949.219    91937034.38845  22451959.250
 108149087.266 8  20580066.820    84272057.21047  20580072.516
 119889032.661 7  22814122.883    93420033.40244  22814130.219
 130040171.470 6  24745825.539   101330012.92943  24745836.215
 131287587.643 6  24983185.320   102301992.25743  24983193.770
 107991319.993 8  20550049.195    84149139.01247  20550060.105
 116940106.492 7  22252949.508    91122167.88345  22252954.617
 114619179.112 8  21811283.016    89313665.41646  21811290.469
 126731297.797 6  24116166.813    98751704.77643  24116175.145
 18  3  9  2 18  0.0000000  0 10G12G24G19G28G30G15G06G02G17G13
 128204758.734 7  24396548.922    99899847.39343  24396556.316
 117920193.093 7  22439422.445    91885740.92145  22439432.652
 108181759.404 8  20586284.164    84297516.03247  20586289.742
 119927568.202 7  22821456.188    93450061.09944  22821462.938
 130152136.211 6  24767131.883   101417258.17544  24767142.441
 131342831.672 7  24993698.945   102345039.49143  24993706.984
 107947644.338 9  20541737.516    84115106.06547  20541748.309
 116855724.293 7  22236892.273    91056415.56445  22236897.793
 114674102.825 8  21821734.695    89356463.12046  21821741.973
 126811525.776 6  24131433.070    98814220.08443  24131441.754
 18  3  9  2 18 30.0000000  0 10G12G24G19G28G30G15G06G02G17G13
 128125588.239 7  24381482.711    99838156.13543  24381491.102
 117854788.283 7  22426976.461    91834776.16345  22426986.785
 108214733.479 8  20592558.875    84323210.12247  20592564.512
 119966277.240 7  22828822.797    93480223.98244  22828829.195
 130264147.607 6  24788447.000   101504539.76543  24788457.734
 131398180.179 7  25004230.883   102388168.24543  25004239.684
 107904511.506 8  20533529.500    84081496.09147  20533540.762
 116771633.906 7  22220890.125    90990890.62846  22220895.879
 114729119.095 8  21832204.430    89399332.94646  21832211.063
 126891763.237 6  24146702.547    98876742.74443  24146710.469
 18  3  9  2 19  0.0000000  0 10G12G24G19G28G30G15G06G02G17G13
 128046358.507 6  24366405.602    99776418.72543  24366413.992
 117789808.446 7  22414611.055    91784142.55045  22414621.906
 108248007.959 8  20598891.344    84349138.29947  20598896.629
 120005161.158 7  22836221.766    93510523.13145  22836228.926
 130376203.590 5  24809769.797   101591856.10843  24809781.293
 131453630.947 7  25014783.375   102431376.61843  25014791.473
 107861923.055 8  20525425.164    84048310.31947  20525436.133
 116687837.827 7  22204943.969    90925595.02245  22204949.605
 114784225.688 8  21842689.914    89442273.16146  21842697.660
 126972007.297 6  24161972.609    98939270.59743  24161980.766
 18  3  9  2 19 30.0000000  0 10G12G24G19G28G30G15G06G02G17G13
 127967070.058 7  24351317.977    99714635.59443  24351325.547
 117725255.635 7  22402327.445    91733841.67945  22402338.355
 108281581.134 8  20605279.539    84375299.22847  20605285.117
 120044220.873 7  22843655.172    93540959.24644  22843661.980
 130488302.078 5  24831100.695   101679205.51042  24831112.777
 131509181.462 6  25025353.461   102474662.69443  25025362.848
 107819880.612 8  20517424.859    84015550.00147  20517435.828
 116604338.318 7  22189054.844    90860530.52346  22189060.246
 114839421.975 8  21853194.195    89485283.26346  21853201.063
 127052254.943 6  24177242.586    99001801.18543  24177251.621
 18  3  9  2 20  0.0000000  0 10G12G24G19G28G30G15G06G02G17G13
 127887723.460 6  24336219.367    99652807.14043  24336227.289
 117661131.673 7  22390125.164    91683874.98845  22390135.488
 108315450.832 8  20611725.172    84401691.21047  20611730.984
 120083457.269 7  22851120.375    93571533.05444  22851128.297
 130600440.556 5  24852439.828   101766586.21142  24852451.676
 131564828.541 7  25035943.063   102518023.99543  25035952.215
 107778385.489 8  20509528.555    83983216.16047  20509538.996
 116521137.571 7  22173222.094    90795698.80845  22173227.555
 114894706.481 8  21863713.727    89528362.11646  21863721.531
 127132503.447 6  24192513.008    99064332.47143  24192521.867
 18  3  9  2 20 30.0000000  0 10G12G24G19G28G30G15G06G02G17G13
 127808318.805 6  24321108.695    99590933.47243  24321116.617
 117597438.089 7  22378004.281    91634243.65145  22378014.723
 108349614.683 8  20618226.391    84428312.40947  20618231.676
 120122870.901 7  22858621.031    93602244.96544  22858628.133
 130712616.284 5  24873787.570   101853995.88342  24873799.125
 131620569.290 7  25046549.625   102561458.31243  25046559.305
 107737438.591 8  20501736.500    83951309.51047  20501747.234
 116438237.118 7  22157446.641    90731101.08646  22157452.512
 114950077.054 8  21874250.570    89571508.02646  21874257.789
 127212749.028 7  24207784.828    99126861.51443  24207791.930
 18  3  9  2 21  0.0000000  0 10G12G24G19G28G30G15G06G02G17G13
 127728856.368 7  24305986.617    99529014.75743  24305994.949
 117534177.345 7  22365966.273    91584949.59045  22365976.598
 108384071.105 8  20624783.219    84455161.58047  20624788.328
 120162462.650 7  22866155.141    93633095.67344  22866162.184
 130824827.154 6  24895140.008   101941432.97442  24895150.918
 131676401.068 7  25057174.219   102604963.60043  25057183.488
 107697041.451 8  20494049.148    83919831.24947  20494060.176
 116355639.285 7  22141729.039    90666739.17646  22141734.207
 115005533.152 8  21884804.117    89614720.57746  21884811.219
 127292989.216 7  24223053.477    99189386.34343  24223062.043
 18  3  9  2 21 30.0000000  0 10G12G24G19G28G30G15G06G02G17G13
 127649336.961 7  24290855.906    99467051.66843  24290863.828
 117471351.699 7  22354010.648    91535994.57045  22354021.207
 108418818.679 8  20631395.234    84482237.62647  20631400.637
 120202233.720 7  22873723.523    93664086.11944  22873730.508
 130937071.053 6  24916499.500   102028895.76843  24916510.000
 131732321.267 7  25067816.852   102648537.74543  25067824.539
 107657195.569 8  20486466.586    83888782.54547  20486477.496
 116273346.662 7  22126069.008    90602615.09646  22126074.352
 115061072.187 8  21895372.336    89657997.76146  21895380.082
 127373220.979 6  24238320.930    99251904.57843  24238328.969
 18  3  9  2 22  0.0000000  0 10G12G24G19G28G30G15G06G02G17G13
 127569761.042 7  24275712.742    99405044.55943  24275720.781
 117408963.667 7  22342138.898    91487380.54545  22342149.047
 108453854.983 8  20638062.438    84509538.65147  20638067.488
 120242185.189 7  22881326.641    93695217.13844  22881332.863
 131049345.554 5  24937864.430   102116382.42843  24937875.574
 131788327.127 6  25078473.672   102692178.66743  25078482.355
 107617902.177 8  20478989.344    83858164.34647  20479000.371
 116191361.048 7  22110467.367    90538730.24646  22110472.652
 115116693.148 8  21905956.680    89701338.77346  21905964.426
 127453441.353 6  24253586.555    99314413.93343  24253594.418
 18  3  9  2 22 30.0000000  0 10G12G24G19G28G30G15G06G02G17G13
 127490129.288 6  24260558.250    99342993.93043  24260567.227
 117347014.893 7  22330350.406    91439108.80445  22330360.496
 108489178.664 8  20644784.414    84537063.60247  20644789.523
 120282317.502 7  22888963.719    93726489.07944  22888970.234
 131161648.527 6  24959235.477   102203891.25943  24959246.680
 131844416.157 6  25089146.867   102735884.42943  25089155.551
 107579162.742 8  20471617.664    83827977.80347  20471628.691
 116109684.652 7  22094924.656    90475086.34646  22094930.703
 115172394.887 8  21916556.602    89744742.73346  21916563.820
 127533647.899 6  24268848.867    99376912.53643  24268857.375
 18  3  9  2 23  0.0000000  0 10G12G24G19G28G30G15G06G02G17G13
 127410441.624 7  24245394.680    99280899.75143  24245402.602
 117285506.985 7  22318646.250    91391180.59145  22318655.871
 108524787.422 8  20651560.516    84564810.70447  20651565.801
 120322631.851 7  22896634.234    93757902.86144  22896641.629
 131273977.500 5  24980609.977   102291420.31943  24980621.707
 131900585.241 6  25099834.992   102779652.56843  25099843.910
 107540978.186 8  20464351.352    83798223.63647  20464362.203
 116028319.267 7  22079441.555    90411684.78946  22079446.840
 115228175.720 8  21927171.273    89788208.33646  21927178.316
 127613837.070 6  24284108.750    99439397.60843  24284117.082
 18  3  9  2 23 30.0000000  0 10G12G24G19G28G30G15G06G02G17G13
 127330699.091 7  24230220.578    99218762.79943  24230228.090
 117224442.596 7  22307025.227    91343597.97945  22307036.195
 108560679.594 8  20658390.531    84592778.63547  20658395.699
 120363128.795 7  22904341.141    93789458.90844  22904347.539
 131386330.380 5  25001990.156   102378968.01543  25002002.355
 131956832.108 6  25110538.469   102823481.27843  25110547.328
 107503350.072 8  20457190.688    83768903.05847  20457201.539
 115947267.570 7  22064018.586    90348527.66746  22064023.695
 115284034.257 8  21937800.328    89831734.47646  21937807.781
 127694006.466 6  24299363.789    99501867.26643  24299372.063
 18  3  9  2 24  0.0000000  0 10G12G24G19G28G30G15G06G02G17G13
 127250902.045 7  24215034.992    99156583.36443  24215042.855
 117163823.807 7  22295490.086    91296362.58645  22295500.527
 108596853.419 8  20665274.125    84620966.04247  20665279.352
 120403809.559 7  22912082.328    93821158.18544  22912088.961
 131498704.90915  25023374.109   102466532.59653  25023385.957
 132013153.860 6  25121255.547   102867368.33043  25121265.695
 107466279.541 8  20450136.703    83740016.95647  20450147.496
 115866531.483 8  22048654.875    90285616.47346  22048659.926
 115339969.573 8  21948445.055    89875320.45246  21948451.922
 127774152.906 6  24314615.672    99564319.01443  24314624.121
 18  3  9  2 24 30.0000000  0 10G12G24G19G28G30G15G06G02G17G13
 127171051.088 7  24199840.625    99094361.91143  24199848.020
 117103652.610 7  22284039.766    91249475.96945  22284049.621
 108633306.724 8  20672210.961    84649371.22847  20672216.129
 120444675.057 7  22919858.711    93853001.41544  22919865.461
 131611098.745 5  25044762.766   102554112.18442  25044774.203
 132069547.888 6  25131988.211   102911311.68143  25131996.895
 107429767.888 8  20443188.438    83711566.34847  20443199.582
 115786113.118 7  22033350.992    90222952.86146  22033356.688
 115395979.780 8  21959103.063    89918964.79146  21959110.516
 127854273.663 6  24329862.180    99626750.75343  24329870.512
 18  3  9  2 25  0.0000000  0 10G12G24G19G28G30G15G06G02G17G13
 127091146.332 6  24184634.750    99032098.52943  24184642.262
 117043930.383 7  22272675.430    91202939.20545  22272685.637
 108670037.562 8  20679200.680    84677992.67447  20679206.141
 120485725.597 7  22927670.633    93884988.83844  22927677.500
 131723509.32315  25066153.461   102641704.84552  25066164.723
 132126011.149 6  25142731.266   102955308.99543  25142741.414
 107393815.823 8  20436347.352    83683551.77747  20436357.617
 115706014.122 7  22018108.750    90160538.09846  22018114.445
 115452063.395 8  21969775.063    89962666.31246  21969783.160
 127934365.504 6  24345103.352    99689159.97243  24345111.859
 18  3  9  2 25 30.0000000  0 10G12G24G19G28G30G15G06G02G17G13
 127011188.628 6  24169419.078    98969793.93743  24169426.707
 116984659.575 7  22261396.250    91156754.18345  22261406.340
 108707044.109 8  20686242.453    84706828.96247  20686247.914
 120526962.551 7  22935518.195    93917121.53244  22935524.770
 131835934.557 5  25087547.594   102729308.93842  25087558.738
 132182540.945 6  25153490.703   102999358.18343  25153498.859
 107358424.744 8  20429612.570    83655974.33547  20429622.953
 115626236.872 8  22002927.773    90098374.05146  22002933.117
 115508219.278 8  21980461.750    90006424.15946  21980469.438
 128014425.748 6  24360337.516    99751544.55743  24360346.492
 18  3  9  2 26  0.0000000  0 10G12G24G19G28G30G15G06G02G17G13
 126931178.280 6  24154193.906    98907448.27343  24154201.535
 116925841.707 7  22250203.383    91110922.10845  22250213.531
 108744324.608 8  20693336.828    84735878.71647  20693341.938
 120568386.707 7  22943400.180    93949400.08944  22943407.340
 131948371.900 5  25108943.391   102816922.47042  25108954.535
 132239134.476 6  25164259.273   103043457.00243  25164268.895
 107323595.552 8  20422984.508    83628834.73447  20422995.594
 115546782.891 8  21987807.930    90036461.89346  21987813.332
 115564445.746 8  21991160.617    90050237.00946  21991168.539
 128094451.365 6  24375565.945    99813902.19243  24375574.922
 18  3  9  2 26 30.0000000  0 10G12G24G19G28G30G15G06G02G17G13
 126851115.989 6  24138957.852    98845062.14243  24138965.773
 116867479.535 7  22239097.664    91065445.11445  22239107.695
 108781877.101 8  20700483.000    84765140.41547  20700487.992
 120609998.603 7  22951318.219    93981824.94544  22951325.848
 132060819.449 5  25130341.602   102904544.04042  25130352.629
 132295789.452 6  25175040.000   103087603.75643  25175049.211
 107289329.636 8  20416463.844    83602134.03947  20416474.695
 115467654.585 8  21972750.203    89974803.51546  21972755.664
 115620741.737 8  22001873.898    90094104.02246  22001881.527
 128174439.771 6  24390787.930    99876230.79543  24390796.730
 18  3  9  2 27  0.0000000  0 10G12G24G19G28G30G15G06G02G17G13
 126771002.412 6  24123713.063    98782636.02543  24123720.926
 116809574.387 7  22228078.813    91020324.24145  22228088.785
 108819699.646 8  20707680.016    84794612.54147  20707685.711
 120651799.312 7  22959273.086    94014396.91344  22959280.715
 132173274.761 6  25151740.789   102992171.60742  25151752.402
 132352503.008 6  25185831.820   103131796.13142  25185841.148
 107255627.949 8  20410050.844    83575873.01647  20410061.578
 115388854.242 8  21957755.430    89913400.68446  21957760.891
 115677105.763 8  22012599.477    90138024.06046  22012607.223
 128254387.825 6  24406001.313    99938527.97243  24406010.406
 18  3  9  2 27 30.0000000  0 10G12G24G19G28G30G15G06G02G17G13
 126690838.189 6  24108458.445    98720170.46643  24108465.840
 116752128.795 7  22217146.977    90975561.46545  22217157.125
 108857790.661 8  20714928.703    84824293.86247  20714933.813
 120693789.603 7  22967264.430    94047116.61744  22967271.180
 132285735.787 6  25173141.352   103079803.68342  25173152.672
 132409272.584 6  25196636.195   103176032.17943  25196643.648
 107222491.585 8  20403745.086    83550052.50047  20403755.820
 115310383.664 7  21942822.594    89852254.81146  21942827.996
 115733536.330 8  22023338.148    90181995.93146  22023345.191
 128334292.909 6  24421206.758   100000791.65243  24421215.383
 18  3  9  2 28  0.0000000  0 10G12G24G19G28G30G15G06G02G17G13
 126610624.001 7  24093193.664    98657665.97443  24093201.703
 116695144.208 7  22206303.523    90931157.91245  22206313.496
 108896148.222 8  20722228.031    84854182.89147  20722233.082
 120735970.368 7  22975290.367    94079984.73744  22975297.820
 132398199.965 5  25194543.164   103167438.10142  25194553.781
 132466095.242 6  25207447.344   103220309.54942  25207457.258
 107189921.603 8  20397547.352    83524673.31947  20397558.086
 115232245.001 8  21927953.406    89791367.57546  21927958.281
 115790032.428 8  22034089.375    90226018.87846  22034096.125
 128414152.207 6  24436403.352   100063019.66943  24436411.449
 18  3  9  2 28 30.0000000  0 10G12G24G19G28G30G15G06G02G17G13
 126530360.023 7  24077919.984    98595122.69043  24077928.023
 116638622.091 7  22195547.594    90887114.72745  22195557.918
 108934770.152 8  20729577.320    84884277.91547  20729582.488
 120778342.446 7  22983353.547    94113001.92444  22983360.414
 132510665.218 5  25215943.742   103255073.42342  25215955.238
 132522968.426 6  25218270.758   103264626.28642  25218279.324
 107157918.839 8  20391457.273    83499736.12347  20391467.949
 115154439.913 8  21913147.680    89730740.26946  21913152.848
 115846592.575 8  22044851.891    90270091.73146  22044859.578
 128493962.679 6  24451591.336   100125209.64343  24451598.672
 18  3  9  2 29  0.0000000  0 10G12G24G19G28G30G15G06G02G17G13
 126450047.000 7  24062636.688    98532541.18343  24062644.902
 116582565.454 7  22184880.195    90843434.25545  22184890.402
 108973655.023 8  20736976.813    84914577.82547  20736982.156
 120820906.524 7  22991453.523    94146168.73944  22991459.922
 132623129.141 5  25237345.680   103342707.66942  25237356.297
 132579889.345 6  25229102.203   103308980.24943  25229111.473
 107126484.253 8  20385475.406    83475241.66547  20385486.082
 115076970.561 8  21898405.602    89670374.57746  21898410.652
 115903215.418 8  22055626.914    90314213.43946  22055634.367
 128573721.579 6  24466769.008   100187359.41943  24466776.813
 18  3  9  2 29 30.0000000  0 10G12G24G19G28G30G15G06G02G17G13
 126369685.935 7  24047344.313    98469922.22943  24047352.352
 116526975.421 7  22174302.695    90800117.37146  22174312.199
 109012800.853 8  20744426.414    84945081.08147  20744431.348
 120863663.586 7  22999589.641    94179485.91944  22999596.391
 132735589.729 5  25258745.078   103430339.31742  25258757.277
 132636855.460 6  25239943.250   103353369.42743  25239952.109
 107095618.999 8  20379601.992    83451190.84347  20379612.844
 114999839.087 8  21883727.773    89610272.17346  21883733.176
 115959899.582 8  22066413.664    90358382.92146  22066420.590
 128653426.240 6  24481935.938   100249466.95143  24481944.680
 18  3  9  2 30  0.0000000  0 10G12G24G19G28G30G15G06G02G17G13
 126289276.724 6  24032041.500    98407265.77443  24032051.180
 116471853.643 7  22163812.289    90757165.36445  22163822.789
 109052205.241 8  20751924.766    84975785.81447  20751929.758
 120906614.194 7  23007762.906    94212953.92744  23007769.891
 132848044.082 6  25280146.117   103517966.12243  25280156.500
 132693863.655 6  25250791.859   103397791.39243  25250800.719
 107065323.480 8  20373836.922    83427583.97647  20373847.422
 114923046.737 8  21869115.164    89550434.01246  21869119.922
 116016643.442 8  22077211.570    90402598.93146  22077218.613
 128733073.601 6  24497092.492   100311529.81043  24497100.707
 18  3  9  2 30 30.0000000  0 10G12G24G19G28G30G15G06G02G17G13
 126208820.499 7  24016732.516    98344572.67143  24016740.789
 116417202.557 7  22153412.672    90714580.12345  22153422.762
 109091866.970 8  20759471.617    85006691.07447  20759477.430
 120949759.639 7  23015972.836    94246573.74744  23015979.938
 132960490.672 5  25301542.672   103605586.86942  25301553.758
 132750911.803 6  25261646.680   103442244.48443  25261656.184
 107035599.169 8  20368180.508    83404422.19547  20368191.711
 114846596.275 8  21854566.914    89490862.26046  21854572.258
 116073446.265 8  22088020.414    90446860.87546  22088027.750
 128812661.182 6  24512237.328   100373546.08143  24512245.602
 18  3  9  2 31  0.0000000  0 10G12G24G19G28G30G15G06G02G17G13
 126128317.861 6  24001414.297    98281843.41843  24001421.926
 116363023.897 7  22143103.008    90672363.02046  22143113.039
 109131783.898 8  20767068.031    85037795.18247  20767073.199
 120993100.467 7  23024220.461    94280345.80544  23024227.328
 133072927.104 5  25322938.164   103693199.68643  25322950.363
 132807997.203 6  25272509.016   103486726.56443  25272519.164
 107006446.690 8  20362633.180    83381706.00147  20362643.621
 114770489.228 8  21840084.188    89431558.10546  21840089.414
 116130306.664 8  22098841.398    90491167.69846  22098848.266
 128892185.637 6  24527370.531   100435513.19243  24527378.570
 18  3  9  2 31 30.0000000  0 10G12G24G19G28G30G15G06G02G17G13
 126047769.524 7  23986086.164    98219078.53743  23986093.207
 116309319.369 7  22132882.992    90630515.35845  22132893.316
 109171954.441 8  20774712.281    85069096.91047  20774717.215
 121036637.363 7  23032504.945    94314270.65644  23032511.988
 133185351.127 6  25344333.570   103780802.86542  25344343.543
 132865116.645 6  25283380.102   103531235.19543  25283388.844
 106977866.949 8  20357194.430    83359436.09247  20357205.047
 114694727.692 8  21825667.070    89372523.17746  21825672.531
 116187223.280 8  22109671.500    90535518.31446  22109678.895
 128971644.538 6  24542490.766   100497429.20843  24542500.387
 18  3  9  2 32  0.0000000  0 10G12G24G19G28G30G15G06G02G17G13
 125967175.841 6  23970749.164    98156278.31444  23970757.262
 116256090.690 7  22122753.703    90589038.48445  22122764.555
 109212376.424 8  20782404.227    85100594.57847  20782409.512
 121080371.051 7  23040827.008    94348348.85244  23040834.402
 133297760.221 5  25365722.109   103868394.46243  25365734.777
 132922267.881 6  25294254.008   103575768.64642  25294263.746
 106949860.551 8  20351864.836    83337612.95347  20351875.395
 114619313.580 8  21811316.430    89313758.97546  21811321.715
 116244194.638 8  22120513.414    90579911.58746  22120520.281
 129051035.199 6  24557598.727   100559292.03443  24557607.176
 18  3  9  2 32 30.0000000  0 10G12G24G19G28G30G15G06G02G17G13
 125886537.714 7  23955404.789    98093443.45844  23955412.242
 116203339.852 7  22112716.094    90547933.96946  22112726.008
 109253047.825 8  20790143.680    85132286.59347  20790148.672
 121124302.538 7  23049187.078    94382581.18044  23049194.297
 133410152.395 5  25387109.070   103955972.91142  25387122.031
 132979447.99615  25305132.734   103620324.61852  25305144.348
 106922428.348 8  20346644.953    83316237.23647  20346655.688
 114544248.624 8  21797032.031    89255266.83546  21797037.375
 116301219.470 8  22131364.250    90624346.54046  22131371.703
 129130354.696 6  24572692.555   100621099.47142  24572700.828
 18  3  9  2 33  0.0000000  0 10G12G24G19G28G30G15G06G02G17G13
 125805855.857 7  23940051.234    98030574.50643  23940059.039
 116151068.340 7  22102769.289    90507202.93846  22102779.086
 109293967.135 8  20797930.461    85164171.78047  20797935.688
 121168432.444 7  23057585.766    94416968.10844  23057592.047
 133522525.500 6  25408494.305
 133036654.32216  25316020.891   103664900.90453  25316030.805
 106895571.144 8  20341534.023    83295309.56647  20341544.816
 114469534.601 8  21782814.523    89197048.14446  21782819.633
 116358296.769 8  22142226.266    90668822.36346  22142233.074
 129209600.065 6  24587772.219   100682849.11142  24587780.609
 18  3  9  2 33 30.0000000  0 10G12G24G19G28G30G15G06G02G17G13
 125725130.756 7  23924690.695    97967671.87344  23924696.684
 116099277.697 7  22092913.586    90466846.61645  22092923.734
 109335132.688 8  20805763.945    85196248.84447  20805768.938
 121212761.633 7  23066020.758    94451510.31644  23066028.094
 133634877.286 6  25429874.953
 133093884.402 6  25326915.289   103709495.76743  25326921.453
 106869289.720 8  20336533.023    83274830.55947  20336543.230
 114395173.493 8  21768664.070    89139104.45946  21768668.887
 116415425.124 8  22153097.000    90713337.97346  22153104.453
 129288768.888 6  24602837.742   100744539.08143  24602846.309
 18  3  9  2 34  0.0000000  0 10G12G24G19G28G30G15G06G02G17G13
 125644363.467 7  23909319.836    97904736.35744  23909327.465
 116047970.548 7  22083150.117    90426867.03446  22083159.973
 109376542.895 8  20813643.586    85228516.55047  20813648.988
 121257290.888 7  23074494.023    94486208.42344  23074501.711
 133747205.596 6  25451250.664
 133151135.577 6  25337807.406   103754107.10743  25337816.559
 106843585.022 8  20331641.523    83254800.94347  20331651.965
 114321167.463 8  21754581.133    89081437.45346  21754586.301
 116472603.615 8  22163978.031    90757892.64946  22163985.016
 129367858.609 6  24617887.688   100806167.42843  24617896.078
 18  3  9  2 34 30.0000000  0 10G12G24G19G28G30G15G06G02G17G13
 125563554.164 7  23893942.547    97841768.11844  23893949.883
 115997148.137 7  22073478.328    90387265.18146  22073488.828
 109418195.154 8  20821570.039    85260972.87347  20821575.676
 121302020.710 7  23083006.406    94521062.80844  23083013.156
 133859508.210 6  25472622.227
 133208404.929 6  25348703.984   103798732.54843  25348714.426
 106818457.223 8  20326859.484    83235220.86547  20326870.277
 114247517.927 8  21740566.203    89024048.24346  21740570.727
 116529830.817 8  22174867.789    90802485.28746  22174875.184
 129446865.973 6  24632921.977   100867731.57643  24632931.363
 18  3  9  2 35  0.0000000  0 10G12G24G19G28G30G15G06G02G17G13
 125482704.362 7  23878557.156    97778768.30743  23878565.137
 115946811.530 7  22063899.688    90348041.86646  22063909.777
 109460088.008 8  20829541.695    85293616.65847  20829547.039
 121346952.440 7  23091556.617    94556074.52944  23091563.895
 133971783.22715  25493984.570
 133265690.315 6  25359606.555   103843370.45843  25359615.531
 106793907.468 8  20322188.156    83216091.20347  20322198.773
 114174227.276 8  21726618.727    88966938.68346  21726624.422
 116587105.789 8  22185766.969    90847115.14046  22185773.953
 129525788.442 6  24647941.430   100929229.61243  24647950.172
 18  3  9  2 35 30.0000000  0 10G12G24G19G28G30G15G06G02G17G13
 125401814.088 7  23863165.195    97715736.95744  23863172.648
 115896963.216 7  22054414.031    90309199.04445  22054424.121
 109502219.362 8  20837559.227    85326446.30147  20837564.395
 121392086.611 6  23100145.500    94591244.00344  23100152.719
 134084028.209 6  25515344.672
 133322988.625 6  25370511.398   103888018.49143  25370519.438
 106769936.073 8  20317626.172    83197412.21347  20317637.316
 114101296.961 8  21712740.641    88910109.89346  21712745.691
 116644426.923 8  22196674.125    90891780.96746  22196681.461
 129604623.457 6  24662943.148   100990659.47142  24662952.184
 18  3  9  2 36  0.0000000  0 10G12G24G19G28G30G15G06G02G17G13
 125320884.533 7  23847763.617    97652674.99943  23847771.305
 115847604.910 7  22045021.570    90270738.04645  22045031.660
 109544587.917 8  20845621.781    85359460.77847  20845626.715
 121437423.516 7  23108772.266    94626571.46544  23108779.953
 134196241.16915  25536697.563
 133380297.228 6  25381414.023   103932674.58842  25381424.699
 106746543.857 8  20313175.188    83179184.54247  20313185.570
 114028728.779 8  21698931.133    88853563.29246  21698936.535
 116701793.100 8  22207590.516    90936481.89446  22207598.203
 129683368.229 6  24677926.813   101052019.05942  24677936.727
 18  3  9  2 36 30.0000000  0  9G12G24G19G28G15G06G02G17G13
 125239916.105 7  23832356.508    97589582.78044  23832363.668
 115798737.883 7  22035722.320    90232659.86446  22035732.703
 109587191.559 8  20853729.055    85392658.43847  20853734.105
 121482964.123 6  23117438.867    94662057.65044  23117446.027
 133437613.941 6  25392321.352   103977336.88343  25392331.090
 106723731.387 8  20308833.805    83161408.61047  20308844.363
 113956524.651 8  21685191.477    88797300.36046  21685196.586
 116759203.314 8  22218515.977    90981217.13246  22218523.020
 129762020.099 6  24692893.898   101113306.23443  24692902.699
 18  3  9  2 37  0.0000000  0  9G12G24G19G28G15G06G02G17G13
 125158909.643 7  23816941.648    97526460.88444  23816948.281
 115750363.490 7  22026517.258    90194965.54146  22026527.230
 109630028.427 8  20861880.500    85426037.82747  20861885.551
 121528709.169 6  23126144.242    94697703.12544  23126151.109
 133494935.57216  25403232.805   104022003.12753  25403239.906
 106701499.003 8  20304603.242    83144084.70047  20304613.977
 113884686.146 8  21671521.141    88741322.33246  21671526.133
 116816656.324 8  22229448.711    91025985.72146  22229456.223
 129840576.032 6  24707842.891   101174518.63543  24707851.750
 18  3  9  2 37 30.0000000  0 10G12G24G19G28G30G15G06G02G17G13
 125077865.794 7  23801518.477    97463309.88544  23801526.223
 115702483.683 7  22017406.008    90157656.62046  22017416.098
 109673096.513 8  20870075.914    85459597.37647  20870081.551
 121574659.263 7  23134887.461    94733508.39044  23134894.797
 134532689.12615  25600723.906
 133552259.403 6  25414137.828   104066671.09643  25414148.504
 106679847.150 8  20300483.039    83127213.15647  20300493.715
 113813214.805 8  21657920.719    88685630.41346  21657925.770
 116874150.813 8  22240389.805    91070786.62946  22240397.141
 129919033.564 6  24722772.789   101235654.39442  24722781.238
 18  3  9  2 38  0.0000000  0 10G12G24G19G28G30G15G06G02G17G13
 124996785.503 7  23786089.438    97400130.48844  23786097.359
 115655100.533 7  22008389.719    90120734.69546  22008399.516
 109716394.333 8  20878315.617    85493335.93747  20878320.551
 121620815.299 7  23143670.617    94769474.11044  23143677.602
 134644747.61816  25622045.547   104918038.57952  25622057.160
 133609582.934 6  25425045.117   104111338.78943  25425056.438
 106658776.470 8  20296473.477    83110794.47147  20296483.566
 113742112.576 8  21644390.141    88630226.09746  21644395.426
 116931685.478 8  22251338.008    91115618.85046  22251345.227
 129997390.111 6  24737682.953   101296711.42143  24737692.633
 18  3  9  2 38 30.0000000  0 10G12G24G19G28G30G15G06G02G17G13
 124915669.686 7  23770653.945    97336923.41144  23770661.457
 115608214.528 7  21999467.086    90084200.16046  21999476.883
 109759920.264 8  20886597.953    85527252.25947  20886603.297
 121667177.980 7  23152492.953    94805600.88844  23152500.465
 134756767.68716  25643363.477
 133666904.093 6  25435952.930   104156004.59443  25435964.367
 106638287.549 8  20292574.352    83094829.10047  20292584.734
 113671381.478 8  21630930.266    88575111.00446  21630935.668
 116989259.488 8  22262294.563    91160481.71746  22262301.430
 130075642.992 6  24752574.766   101357687.72042  24752583.039
 18  3  9  2 39  0.0000000  0  9G12G24G19G28G15G06G02G17G13
 124834518.977 7  23755211.297    97273689.13744  23755218.633
 115561828.191 7  21990640.570    90048054.98546  21990650.191
 109803671.903 8  20894923.906    85561344.46447  20894929.016
 121713747.657 6  23161355.266    94841888.94444  23161362.719
 133724219.510 6  25446863.250   104200665.93443  25446870.527
 106618380.576 8  20288786.070    83079317.19447  20288796.395
 113601023.180 8  21617541.398    88520286.37746  21617547.211
 117046871.523 8  22273256.992    91205374.21946  22273264.738
 130153789.307 6  24767446.188   101418580.96642  24767453.934
 18  3  9  2 39 30.0000000  0 10G12G24G19G28G30G15G06G02G17G13
 124753334.023 7  23739761.773    97210428.19244  23739770.164
 115515942.587 7  21981908.359    90012299.98046  21981918.039
 109847647.721 8  20903292.156    85595611.34047  20903297.266
 121760525.490 7  23170256.102    94878339.18844  23170263.555
 134980671.312 5  25685966.414
 133781526.658 6  25457768.844   104245320.89743  25457776.590
 106599056.134 8  20285108.648    83064259.20247  20285119.441
 113531039.179 8  21604224.242    88465753.41546  21604229.000
 117104520.615 8  22284227.203    91250295.59546  22284234.480
 130231826.610 6  24782296.563   101479389.25042  24782304.719
 18  3  9  2 40  0.0000000  0  9G12G24G19G28G15G06G02G17G13
 124672116.028 7  23724306.586    97147141.52044  23724314.801
 115470559.446 7  21973272.133    89976936.50046  21973281.988
 109891846.333 8  20911702.648    85630051.81847  20911708.168
 121807512.125 7  23179198.203    94914952.12444  23179205.070
 133838823.392 6  25468669.117   104289967.71743  25468679.500
 106580314.839 8  20281542.633    83049655.61747  20281552.957
 113461431.368 8  21590978.227    88411513.58146  21590983.512
 117162205.816 8  22295204.742    91295245.11346  22295211.727
 130309752.203 6  24797124.680   101540110.47043  24797133.012
 18  3  9  2 40 30.0000000  0  9G12G24G19G28G15G06G02G17G13
 124590865.771 7  23708845.383    97083829.68443  23708852.719
 115425680.470 7  21964732.500    89941965.88446  21964742.355
 109936265.685 8  20920155.602    85664664.30347  20920160.711
 121854708.056 7  23188179.430    94951728.15644  23188187.117
 133896107.285 6  25479567.977   104334604.50342  25479579.766
 106562156.985 8  20278087.367    83035506.65247  20278097.574
 113392201.511 8  21577804.195    88357568.26246  21577809.539
 117219925.828 8  22306188.398    91340221.75246  22306195.324
 130387563.670 6  24811931.844   101600742.76142  24811939.531
 18  3  9  2 41  0.0000000  0  9G12G24G19G28G15G06G02G17G13
 124509583.629 7  23693378.281    97020493.01243  23693385.910
 115381306.723 7  21956288.070    89907388.94946  21956297.926
 109980903.810 8  20928649.898    85699447.26447  20928655.418
 121902113.893 6  23197199.961    94988667.74744  23197207.648
 133953374.812 6  25490467.531   104379228.45543  25490477.094
 106544582.447 8  20274742.703    83021812.22547  20274753.145
 113323350.683 8  21564702.609    88303918.29846  21564707.309
 117277679.118 8  22317178.617    91385224.32546  22317185.309
 130465257.924 6  24826715.445   101661283.76542  24826724.363
 18  3  9  2 41 30.0000000  0  9G12G24G19G28G15G06G02G17G13
 124428270.726 7  23677904.742    96957132.36044  23677912.254
 115337439.432 7  21947940.672    89873206.65046  21947950.469
 110025758.693 8  20937185.148    85734399.12647  20937190.668
 121949730.576 7  23206261.516    95025771.63344  23206268.734
 134010623.410 6  25501365.148   104423837.72843  25501371.664
 106527591.682 8  20271509.633    83008572.68047  20271520.016
 113254880.776 8  21551672.633    88250565.14546  21551677.684
 117335464.675 7  22328174.688    91430252.03446  22328182.023
 130542832.568 6  24841478.477   101721731.52942  24841485.461
 18  3  9  2 42  0.0000000  0  9G12G24G19G28G15G06G02G17G13
 124346928.556 7  23662426.523    96893748.90044  23662433.215
 115294081.216 7  21939689.570    89839421.04046  21939699.543
 110070829.088 8  20945762.141    85769518.92347  20945767.074
 121997558.117 7  23215362.828    95063039.82044  23215369.754
 134067851.409 6  25512254.383   104468431.04643  25512261.543
 106511185.627 8  20268387.656    82995788.74847  20268398.273
 113186794.229 8  21538716.195    88197510.72646  21538721.715
 117393282.172 8  22339177.297    91475304.64046  22339184.398
 130620285.258 6  24856216.672   101782084.27242  24856225.297
 18  3  9  2 42 30.0000000  0  9G12G24G19G28G15G06G02G17G13
 124265557.034 7  23646941.930    96830342.60543  23646949.031
 115251232.429 7  21931535.953    89806032.38246  21931545.633
 110116112.749 8  20954379.234    85804804.89647  20954384.285
 122045597.423 7  23224504.367    95100473.03544  23224511.645
 134125055.500 6  25523136.492   104513005.72342  25523147.344
 106495363.764 8  20265376.883    82983460.04247  20265387.734
 113119091.750 8  21525833.367    88144755.58146  21525838.418
 117451129.728 8  22350185.172    91520380.67046  22350192.684
 130697612.777 6  24870931.211   101842339.49143  24870940.305
 18  3  9  2 43  0.0000000  0  9G12G24G19G28G15G06G02G17G13
 124184157.282 7  23631451.508    96766914.28744  23631458.844
 115208894.607 7  21923479.266    89773041.88646  21923489.355
 110161608.211 8  20963036.594    85840255.91946  20963041.703
 122093849.428 6  23233685.992    95138071.98844  23233693.035
 134182233.557 5  25534018.047   104557559.96843  25534028.547
 106480126.658 8  20262477.336    82971586.98147  20262487.602
 113051775.106 8  21513023.250    88092301.08446  21513028.008
 117509006.778 8  22361199.547    91565479.68346  22361206.238
 130774813.158 6  24885622.320   101902495.60742  24885631.063
 18  3  9  2 43 30.0000000  0  9G12G24G19G28G15G06G02G17G13
 124102730.424 7  23615955.844    96703464.85844  23615963.531
 115167069.355 7  21915519.977    89740450.79046  21915530.184
 110207313.808 8  20971734.297    85875870.69347  20971739.113
 122142314.595 6  23242908.133    95175837.03344  23242915.645
 134239382.720 6  25544896.883   104602091.78442  25544902.754
 106465474.584 8  20259689.336    82960169.79347  20259699.777
 112984846.137 8  21500287.242    88040148.67346  21500291.883
 117566912.184 8  22372218.328    91610600.78946  22372224.375
 130851883.753 5  24900286.313   101962550.69842  24900297.105
 18  3  9  2 44  0.0000000  0  9G12G24G19G28G15G06G02G17G13
 124021277.214 7  23600455.781    96639994.89744  23600463.410
 115125758.030 7  21907658.930    89708260.15646  21907668.434
 110253227.817 8  20980471.414    85911647.85547  20980476.465
 122190993.556 6  23252172.633    95213768.66344  23252179.676
 134296500.191 6  25555763.578   104646598.96742  25555772.262
 106451407.562 8  20257012.008    82949208.49347  20257022.566
 112918306.392 8  21487624.727    87988299.54046  21487630.246
 117624844.656 8  22383241.547    91655742.98446  22383249.000
 130928821.694 6  24914930.258   102022502.23142  24914938.473
 18  3  9  2 44 30.0000000  0 10G12G24G03G19G28G15G06G02G17G13
 123939798.650 7  23584952.273    96576505.15844  23584958.438
 115084962.017 7  21899895.391    89676471.06546  21899905.480
 135257378.369 5  25738625.266   105395400.81752  25738634.066
 110299348.293 8  20989248.039    85947585.89747  20989252.738
 122239887.056 6  23261476.727    95251867.47944  23261483.418
 134353583.816 5  25566624.234   104691079.70742  25566635.027
 106437925.914 8  20254446.797    82938703.33347  20254457.355
 112852157.376 8  21475037.281    87936754.87646  21475042.566
 117682803.370 7  22394270.508    91700905.61946  22394277.785
 131005624.523 6  24929543.070   102082348.64842  24929553.512
 18  3  9  2 45  0.0000000  0 10G12G24G03G19G28G15G06G02G17G13
 123858295.529 7  23569441.914    96512996.32244  23569448.781
 115044682.682 7  21892230.148    89645084.58346  21892240.355
 135277532.638 5  25742460.867   105411105.49942  25742469.961
 110345673.729 8  20998063.406    85983683.65047  20998068.984
 122288995.780 6  23270821.055    95290134.01344  23270828.684
 134410631.023 5  25577480.625   104735531.94143  25577490.598
 106425029.884 8  20251992.453    82928654.49947  20252002.836
 112786400.855 8  21462524.063    87885516.03946  21462529.348
 117740787.460 7  22405304.484    91746088.02946  22405312.172
 131082290.070 6  24944133.398   102142088.08042  24944142.492
 18  3  9  2 45 30.0000000  0  9G12G24G19G28G15G06G02G17G13
 123776768.891 7  23553927.227    96449469.11844  23553934.855
 115004921.199 7  21884664.109    89614101.61546  21884673.789
 110392202.224 8  21006917.352    86019939.63147  21006921.875
 122338319.962 6  23280207.680    95328568.41144  23280215.074
 134467638.818 6  25588331.906   104779953.63342  25588339.125
 106412719.335 8  20249650.070    82919061.88347  20249660.512
 112721038.131 8  21450085.953    87834584.05746  21450090.887
 117798795.575 7  22416343.023    91791289.16046  22416351.063
 131158815.440 6  24958695.148   102201718.19642  24958704.418
 18  3  9  2 46  0.0000000  0  9G12G24G19G28G15G06G02G17G13
 123695219.716 7  23538409.750    96385924.37544  23538416.441
 114965678.998 7  21877196.469    89583523.29646  21877206.266
 110438932.124 8  21015809.625    86056352.55147  21015814.500
 122387860.311 7  23289634.391    95367171.26044  23289642.488
 134524605.059 6  25599169.930   104824342.94543  25599180.254
 106400994.477 8  20247419.078    82909925.65547  20247429.285
 112656070.637 8  21437723.117    87783960.04746  21437728.051
 117856827.184 7  22427385.938    91836508.60246  22427394.387
 131235197.887 6  24973231.727   102261237.03042  24973239.648
 18  3  9  2 46 30.0000000  0  9G12G24G19G28G15G06G02G17G13
 123613648.663 7  23522887.297    96322362.59544  23522894.281
 114926957.195 7  21869828.008    89553350.46546  21869838.098
 110485861.167 8  21024739.836    86092920.65246  21024745.648
 122437617.337 6  23299103.266    95405942.96044  23299110.953
 134581526.890 5  25609999.391   104868697.64242  25610011.180
 106389855.028 8  20245298.969    82901245.57947  20245309.586
 112591499.833 8  21425435.602    87733645.15646  21425441.004
 117914880.470 7  22438433.961    91881744.93346  22438441.297
 131311434.969 5  24987736.875   102320642.56342  24987747.492
 18  3  9  2 47  0.0000000  0 10G12G24G03G19G28G15G06G02G17G13
 123532056.930 7  23507360.125    96258784.69044  23507367.695
 114888757.283 7  21862558.813    89523584.30646  21862569.020
 135362885.45715  25758669.008
 110532988.454 8  21033708.500    86129643.21847  21033713.082
 122487591.736 7  23308612.055    95444884.01944  23308620.035
 134638401.983 6  25620825.102   104913015.82643  25620834.898
 106379301.328 8  20243290.570    82893021.92147  20243301.363
 112527327.654 8  21413223.789    87683640.88846  21413229.250
 117972954.917 7  22449485.219    91926997.76646  22449492.555
 131387524.829 6  25002217.367   102379933.32342  25002226.227
 18  3  9  2 47 30.0000000  0 10G12G24G03G19G28G15G06G02G17G13
 123450445.915 7  23491829.469    96195191.76244  23491837.273
 114851080.371 7  21855389.328    89494225.68746  21855399.828
 135385319.186 5  25762937.539
 110580311.929 8  21042713.906    86166518.66947  21042718.137
 122537784.146 7  23318163.461    95483994.98544  23318171.910
 134695227.751 6  25631640.523   104957295.64543  25631647.742
 106369333.473 8  20241393.969    82885254.76847  20241404.469
 112463555.358 8  21401088.141    87633948.21946  21401093.191
 118031049.889 7  22460540.492    91972266.58546  22460547.066
 131463464.256 6  25016667.789   102439106.95942  25016677.469
 18  3  9  2 48  0.0000000  0  9G12G24G19G28G15G06G02G17G13
 123368816.219 7  23476296.734    96131584.27144  23476303.602
 114813928.110 7  21848319.813    89465275.88046  21848329.785
 110627830.031 8  21051755.492    86203545.77146  21051760.543
 122588195.026 6  23327757.352    95523276.17544  23327764.570
 134752001.816 6  25642444.570   105001535.19042  25642451.789
 106359951.423 8  20239608.625    82877944.09547  20239619.066
 112400184.373 8  21389029.313    87584568.25746  21389034.129
 118089164.223 7  22471599.398    92017550.48646  22471605.973
 131539251.050 6  25031091.844   102498161.55242  25031099.004
 18  3  9  2 48 30.0000000  0  9G12G24G19G28G15G06G02G17G13
 123287168.618 7  23460759.648    96067962.84744  23460766.750
 114777301.215 7  21841349.727    89436735.45046  21841359.406
 110675541.163 8  21060834.664    86240723.28746  21060839.715
 122638825.105 7  23337391.844    95562728.18844  23337399.121
 134808721.596 6  25653236.086   105045732.47642  25653245.883
 106351155.205 8  20237934.734    82871089.92047  20237945.000
 112337216.124 8  21377047.008    87535502.11646  21377052.117
 118147296.967 8  22482661.484    92062848.72446  22482668.176
 131614882.981 6  25045480.039   102557095.56542  25045491.008
 18  3  9  2 49  0.0000000  0  9G12G24G19G28G15G06G02G17G13
 123205504.337 7  23445219.578    96004328.40044  23445227.090
 114741200.623 7  21834479.922    89408605.13246  21834489.836
 110723443.184 8  21069950.477    86278049.54646  21069955.762
 122689674.868 6  23347067.516    95602351.36044  23347075.848
 134865384.753 5  25664015.313   105089885.53142  25664028.098
 106342944.504 8  20236372.125    82864691.98147  20236382.625
 112274652.200 7  21365141.328    87486751.02846  21365146.438
 118205447.024 7  22493726.602    92108160.46046  22493734.348
 131690357.086 6  25059846.828   102615906.53342  25059853.168
 18  3  9  2 49 30.0000000  0  9G12G24G19G28G15G06G02G17G13
 123123824.114 7  23429675.453    95940681.52844  23429683.141
 114705628.028 7  21827710.836    89380886.23546  21827720.457
 110771534.479 8  21079101.398    86315523.29046  21079106.625
 122740744.672 6  23356786.461    95642146.01144  23356794.383
 134921988.213 5  25674788.133   105133992.11242  25674798.633
 106335319.160 8  20234921.141    82858750.16647  20234931.582
 112212493.974 7  21353313.219    87438316.07746  21353318.211
 118263613.371 7  22504795.430    92153484.89446  22504803.293
 131765671.034 6  25074174.797   102674592.74842  25074185.707
 18  3  9  2 50  0.0000000  0  9G12G24G19G28G15G06G02G17G13
 123042129.360 7  23414129.672    95877023.35044  23414137.125
 114670584.579 7  21821042.016    89353579.66446  21821051.695
 110819813.788 8  21088288.781    86353143.54546  21088293.891
 122792035.180 6  23366546.273    95682112.64344  23366554.137
 134978529.746 6  25685550.438   105178050.33942  25685557.949
 106328279.389 8  20233581.484    82853264.64247  20233591.926
 112150743.025 8  21341562.070    87390198.48546  21341567.473
 118321795.430 7  22515867.492    92198821.56946  22515874.359
 131840822.794 6  25088479.969   102733152.47642  25088486.016
 18  3  9  2 50 30.0000000  0  9G12G24G19G28G15G06G02G17G13
 122960420.944 7  23398581.141    95813354.51244  23398588.945
 114636070.895 7  21814474.375    89326685.88846  21814483.996
 110868279.381 8  21097511.273    86390908.95846  21097516.793
 122843546.899 7  23376349.508    95722251.63044  23376356.316
 135035006.880 6  25696300.609   105222058.56142  25696305.309
 106321824.857 8  20232353.258    82848235.15147  20232363.758
 112089400.590 8  21329889.133    87342399.20446  21329893.832
 118379992.319 7  22526941.148    92244169.79445  22526948.895
 131915809.677 6  25102748.211   102791583.86442  25102756.133
 18  3  9  2 51  0.0000000  0  9G12G24G19G28G15G06G02G17G13
 122878699.863 7  23383030.281    95749675.80644  23383037.910
 114602088.308 7  21808007.742    89300205.96246  21808017.480
 110916929.060 8  21106769.500    86428817.80047  21106774.551
 122895280.210 6  23386193.461    95762563.27144  23386201.559
 135091417.189 6  25707033.039   105266014.60343  25707040.082
 106315955.258 8  20231236.195    82843661.45447  20231246.930
 112028467.688 7  21318294.047    87294919.04546  21318299.098
 118438202.847 7  22538018.219    92289528.64646  22538025.379
 131990629.399 5  25116981.680   102849884.93642  25116993.469
 18  3  9  2 51 30.0000000  0  9G12G24G19G28G15G06G02G17G13
 122796967.285 7  23367476.945    95685988.13844  23367484.047
 114568637.870 7  21801642.438    89274140.69346  21801652.527
 110965761.472 8  21116061.273    86466869.04746  21116067.086
 122947235.500 6  23396080.359    95803047.91144  23396087.988
 135147758.261 6  25717752.086   105309916.87042  25717761.824
 106310670.327 8  20230230.367    82839543.35347  20230241.277
 111967945.834 8  21306777.133    87247759.18046  21306781.715
 118496426.011 7  22549098.078    92334897.33845  22549105.004
 132065278.876 6  25131191.453   102908044.34642  25131197.031
 18  3  9  2 52  0.0000000  0  9G12G24G19G28G15G06G02G17G13
 122715224.606 7  23351921.891    95622292.61344  23351929.344
 114535720.800 7  21795378.211    89248491.03746  21795388.125
 111014775.119 8  21125388.828    86505061.50746  21125393.996
 122999413.616 6  23406009.398    95843706.16044  23406017.613
 135204027.272 6  25728459.047   105353762.80543  25728469.664
 106305970.245 8  20229336.219    82835880.96947  20229346.309
 111907836.675 8  21295338.844    87200920.90146  21295344.305
 118554661.404 7  22560179.563    92380275.57946  22560187.777
 132139756.332 6  25145363.922   102966078.75142  25145370.613
 18  3  9  2 52 30.0000000  0  9G12G24G19G28G15G06G02G17G13
 122633472.357 7  23336364.578    95558589.62144  23336372.207
 114503338.200 7  21789215.953    89223257.85146  21789226.453
 111063968.079 8  21134749.781    86543393.69646  21134755.359
 123051814.795 6  23415981.289    95884538.22944  23415988.156
 135260221.909 6  25739149.992   105397550.78642  25739163.188
 106301854.364 8  20228552.813    82832673.79747  20228563.195
 111848141.247 8  21283979.383    87154405.00746  21283983.965
 118612907.547 7  22571264.016    92425662.18646  22571271.469
 132214059.006 6  25159500.469   103023976.90042  25159510.383
 18  3  9  2 53  0.0000000  0  9G12G24G19G28G15G06G02G17G13
 122551711.813 7  23320806.352    95494880.15044  23320813.746
 114471490.964 7  21783155.992    89198441.84046  21783165.730
 111113339.065 8  21144144.922    86581864.59446  21144149.855
 123104439.742 6  23425994.719    95925544.66643  23426002.816
 135316339.959 5  25749830.242   105441279.10242  25749841.387
 106298322.717 8  20227880.703    82829921.88147  20227891.379
 111788861.279 8  21272698.656    87108212.85046  21272703.824
 118671164.247 7  22582349.977    92471057.02545  22582356.492
 132288184.842 6  25173610.414   103081737.28442  25173616.461
 18  3  9  2 53 30.0000000  0  9G12G24G19G28G15G06G02G17G13
 122469944.020 7  23305246.023    95431165.03144  23305253.066
 114440179.772 7  21777197.523    89174043.51146  21777206.617
 111162886.109 8  21153573.461    86620472.69346  21153578.688
 123157288.910 6  23436052.680    95966725.83344  23436059.898
 135372378.584 6  25760497.305   105484945.47442  25760505.695
 106295374.817 8  20227319.914    82827624.83047  20227330.473
 111729997.562 8  21261496.883    87062345.04646  21261501.758
 118729430.046 7  22593437.211    92516458.95146  22593444.781
 132362131.347 6  25187682.211   103139357.91742  25187688.375
 18  3  9  2 54  0.0000000  0  9G12G24G19G28G15G06G02G17G13
 122388170.270 7  23289685.234    95367445.27144  23289692.453
 114409405.871 7  21771341.125    89150063.85946  21771351.156
 111212607.574 8  21163034.984    86659216.70346  21163040.270
 123210362.582 6  23446152.227    96008081.93044  23446159.387
 135428335.539 6  25771147.016   105528548.36843  25771153.883
 106293010.374 8  20226869.977    82825782.42647  20226880.125
 111671551.535 7  21250374.922    87016802.71246  21250379.855
 118787704.443 7  22604526.656    92561867.56745  22604533.875
 132435896.316 5  25201714.875   103196837.14442  25201725.258
 18  3  9  2 54 30.0000000  0  9G12G24G19G28G15G06G02G17G13
 122306391.693 7  23274123.953    95303721.75244  23274130.938
 114379170.351 7  21765587.797    89126503.71646  21765597.301
 111262501.921 8  21172529.750    86698095.41646  21172535.152
 123263661.202 7  23456293.828    96049613.31144  23456301.809
 135484208.649 6  25781778.375   105572085.74543  25781787.117
 106291229.028 8  20226530.719    82824394.38547  20226541.570
 111613524.728 8  21239332.789    86971587.03546  21239337.371
 118845986.442 7  22615617.117    92607282.12445  22615624.922
 132509477.229 6  25215719.250   103254172.88442  25215726.410
 18  3  9  2 55  0.0000000  0  9G12G24G19G28G15G06G02G17G13
 122224609.235 7  23258560.391    95239995.20444  23258567.844
 114349473.952 7  21759936.289    89103363.67546  21759946.086
 111312568.079 8  21182057.133    86737108.01746  21182062.477
 123317185.236 6  23466480.328    96091320.32043  23466487.195
 135539994.844 6  25792393.195   105615555.64742  25792402.523
 106290030.414 8  20226303.188    82823460.41947  20226313.395
 111555918.054 7  21228370.477    86926698.73446  21228375.645
 118904275.427 7  22626708.805    92652702.12045  22626716.551
 132582871.607 6  25229688.305   103311363.29142  25229693.297
 18  3  9  2 55 30.0000000  0  9G12G24G19G28G15G06G02G17G13
 122142824.315 7  23242997.891    95176266.75744  23243005.051
 114320317.842 7  21754388.477    89080644.64146  21754397.922
 111362803.878 8  21191616.555    86776252.80646  21191621.605
 123370935.240 6  23476707.656    96133203.44044  23476715.461
 135595692.202 6  25802993.234   105658956.08943  25803000.980
 106289414.434 8  20226185.438    82822980.46147  20226196.465
 111498733.298 8  21217488.492    86882139.20146  21217494.012
 118962570.757 7  22637802.148    92698127.05845  22637809.484
 132656077.605 6  25243615.695   103368406.91342  25243624.203
 18  3  9  2 56  0.0000000  0  9G12G24G19G28G15G06G02G17G13
 122061037.942 7  23227433.430    95112537.14844  23227440.824
 114291702.164 7  21748942.695    89058346.70946  21748952.434
 111413208.231 8  21201207.945    86815528.93546  21201213.348
 123424911.494 7  23486979.102    96175262.83843  23486986.730
 135651298.083 6  25813573.813   105702285.28742  25813583.375
 106289380.094 8  20226179.148    82822953.71547  20226189.355
 111441970.971 8  21206687.297    86837908.84446  21206691.820
 119020871.191 7  22648897.148    92743555.96145  22648903.957
 132729092.625 5  25257507.023   103425301.74642  25257518.051
 18  3  9  2 56 30.0000000  0  9G12G24G19G28G15G06G02G17G13
 121979250.956 7  23211870.523    95048807.06745  23211877.156
 114263628.564 7  21743600.875    89036471.18746  21743610.555
 111463778.755 8  21210830.820    86854934.54146  21210836.457
 123479114.481 7  23497293.961    96217498.90744  23497301.648
 135706809.941 6  25824136.227   105745541.45043  25824146.961
 106289926.976 8  20226283.227    82823379.87447  20226293.609
 111385632.316 8  21195966.148    86794008.61646  21195971.141
 119079175.910 7  22659991.305    92788988.22645  22659998.934
 132801913.986 6  25271365.156   103482045.69342  25271374.895
 18  3  9  2 57  0.0000000  0  9G12G24G19G28G15G06G02G17G13
 121897465.031 7  23196307.055    94985077.80845  23196314.215
 114236097.807 7  21738361.742    89015018.65346  21738371.773
 111514514.567 8  21220485.734    86894468.94146  21220490.727
 123533544.736 7  23507650.867    96259912.08544  23507658.965
 135762225.618 6  25834679.633   105788744.31252  25834692.652
 106291055.143 8  20226497.695    82824258.98447  20226508.430
 111329719.139 8  21185326.109    86750439.93546  21185331.746
 119137484.696 7  22671087.523    92834423.64745  22671095.328
 132874539.985 6  25285189.016   103538637.28142  25285196.352
 18  3  9  2 57 30.0000000  0  9G12G24G19G28G15G06G02G17G13
 121815681.054 7  23180744.289    94921350.05844  23180751.215
 114209110.267 7  21733226.156    88993989.40746  21733236.012
 111565413.375 8  21230171.570    86934130.35046  21230176.563
 123588202.217 6  23518053.141    96302502.32243  23518059.480
 135817542.272 5  25845205.109
 106292763.468 8  20226823.031    82825590.16547  20226833.414
 111274231.897 8  21174767.344    86707203.14646  21174771.926
 119195796.134 7  22682184.313    92879861.13745  22682191.707
 132946967.781 6  25298971.969   103595074.59542  25298978.953
 18  3  9  2 58  0.0000000  0  9G12G24G19G28G15G06G02G17G13
 121733900.562 7  23165182.141    94857625.02244  23165188.949
 114182667.232 7  21728194.227    88973384.44846  21728203.906
 111616474.296 8  21239888.289    86973918.09146  21239893.164
 123643087.837 6  23528496.602    96345270.32243  23528504.289
 135872758.269 5  25855711.391   105874877.64042  25855726.172
 106295051.996 8  20227258.125    82827373.44947  20227268.273
 111219172.411 7  21164289.977    86664299.66646  21164295.203
 119254109.899 7  22693280.930    92925300.44345  22693287.094
 133019195.544 6  25312714.813   103651356.00342  25312723.613
 18  3  9  2 58 30.0000000  0  9G12G24G19G28G15G06G02G17G13
 121652124.262 7  23149620.031    94793903.26644  23149626.840
 114156769.097 7  21723265.883    88953204.09346  21723275.973
 111667695.474 8  21249635.633    87013830.70646  21249640.508
 123698201.681 6  23538985.023    96388216.16343  23538991.832
 135927870.843 5  25866197.195   105917822.39842  25866213.969
 106297919.705 8  20227803.828    82829608.04747  20227814.504
 111164541.239 8  21153893.977    86621729.94547  21153899.262
 119312424.816 7  22704377.570    92970740.64145  22704384.438
 133091221.052 5  25326418.172   103707479.78342  25326429.492
 18  3  9  2 59  0.0000000  0  9G12G24G19G28G15G06G02G17G13
 121570353.777 7  23134059.531    94730186.02544  23134066.398
 114131416.828 7  21718441.773    88933449.07846  21718451.512
 111719075.394 8  21259412.680    87053867.01546  21259417.730
 123753544.117 6  23549515.844    96431340.12843  23549523.414
 135982877.570 5  25876667.500   105960692.01952  25876683.102
 106301366.162 8  20228459.680    82832293.62647  20228470.121
 111110339.584 8  21143579.828    86579494.91247  21143584.879
 119370740.384 7  22715475.117    93016181.33845  22715482.453
 133163042.067 5  25340085.109   103763444.17742  25340096.898
 18  3  9  2 59 30.0000000  0  9G12G24G19G28G15G06G02G17G13
 121488590.064 7  23118500.516    94666474.08245  23118507.383
 114106610.704 7  21713721.031    88914119.63546  21713731.355
 111770612.348 8  21269219.930    87094025.68346  21269224.746
 123809115.424 6  23560090.500    96474642.40943  23560098.012
 136037775.493 6  25887113.117
 106305390.599 8  20229225.531    82835429.56847  20229236.090
 111056568.519 8  21133347.203    86537595.40547  21133351.961
 119429055.897 7  22726571.930    93061622.00945  22726579.559
 133234655.699 5  25353712.234   103819246.98542  25353724.258
 18  3  9  3  0  0.0000000  0  9G12G24G19G28G15G06G02G17G13
 121406834.449 7  23102943.492    94602768.42744  23102950.301
 114082351.910 7  21709105.000    88895216.68146  21709114.680
 111822304.959 8  21279056.813    87134305.64246  21279061.746
 123864916.126 6  23570709.133    96518123.48843  23570717.523
 136092562.799 4  25897537.883   106046153.80952  25897554.129
 106309992.707 8  20230101.320    82839015.64647  20230112.055
 111003229.326 8  21123197.461    86496032.42146  21123201.926
 119487370.892 7  22737668.688    93107062.27245  22737675.320
 133306060.239 5  25367300.281   103874886.87342  25367312.070
 18  3  9  3  0 30.0000000  0  9G12G24G19G28G15G06G02G17G13
 121325088.162 7  23087387.203    94539070.05644  23087394.363
 114058640.754 7  21704592.930    88876740.46346  21704602.844
 111874151.723 8  21288922.633    87174705.73246  21288927.625
 123920946.507 6  23581371.234    96561783.51843  23581378.688
 136147237.402 6  25907947.195   106088764.31552  25907961.742
 106315171.710 8  20231086.703    82843051.25147  20231096.793
 110950323.108 8  21113129.648    86454806.81946  21113134.816
 119545684.150 7  22748765.609    93152501.17645  22748772.711
 133377253.42916  25380851.914   103930362.01552  25380860.012
 18  3  9  3  1  0.0000000  0  9G12G24G19G28G15G06G02G17G13
 121243352.373 7  23071833.664    94475379.85744  23071840.004
 114035478.146 7  21700184.875    88858691.68346  21700195.023
 111926151.051 8  21298817.945    87215224.69846  21298822.645
 123977206.667 6  23592078.148    96605622.61343  23592085.074
 136201796.535 6  25918334.523
 106320926.652 8  20232181.750    82847535.63147  20232192.777
 110897850.537 8  21103144.219    86413919.12047  21103149.094
 119603994.980 7  22759861.805    93197938.18645  22759869.258
 133448232.553 6  25394360.063   103985670.46242  25394366.168
 18  3  9  3  1 30.0000000  0  9G12G24G19G28G15G06G02G17G13
 121161628.251 7  23056281.742    94411698.75644  23056288.961
 114012863.994 7  21695881.852    88841070.26846  21695892.000
 111978301.161 8  21308741.781    87255861.15446  21308746.480
 124033697.043 6  23602827.133    96649641.07143  23602835.289
 136256237.733 6  25928694.070
 106327256.723 8  20233386.594    82852468.17247  20233397.035
 110845812.600 8  21093241.961    86373370.09647  21093247.070
 119662303.124 7  22770957.000    93243373.10945  22770964.395
 133518995.495 6  25407825.133   104040810.36142  25407831.824
 18  3  9  3  2  0.0000000  0 10G12G24G05G19G28G15G06G02G17G13
 121079917.832 7  23040732.969    94348028.32144  23040739.426
 113990799.925 7  21691683.047    88823877.49246  21691693.078
 135113947.18414  25711323.367
 112030601.317 8  21318694.289    87296614.53346  21318698.813
 124090418.240 6  23613621.594    96693839.38544  23613628.871
 136310546.24716  25939031.906
 106334161.967 8  20234700.609    82857848.90047  20234711.227
 110794210.990 8  21083422.078    86333161.07246  21083426.895
 119720608.447 7  22782051.727    93288805.82445  22782059.531
 133589541.10715  25421247.711   104095781.00552  25421256.102
 18  3  9  3  2 30.0000000  0 10G12G24G05G19G28G15G06G02G17G13
 120998222.278 7  23025186.797    94284369.48744  23025193.137
 113969286.870 7  21687589.273    88807114.06946  21687599.773
 135033599.934 6  25696040.391   105221017.24453  25696048.137
 112083049.934 8  21328674.172    87337483.58846  21328679.574
 124147370.412 6  23624458.656    96738217.70144  23624466.754
 136364745.590 7  25949341.828   106258257.41043  25949351.156
 106341641.480 8  20236123.750    82863677.10347  20236134.250
 110743046.624 8  21073686.125    86293292.75447  21073690.648
 119778909.543 7  22793146.305    93334235.24945  22793153.523
 133659866.799 5  25434629.859   104150595.26952  25434638.953
 18  3  9  3  3  0.0000000  0 10G12G24G05G19G28G15G06G02G17G13
 120916542.357 7  23009642.883    94220722.82144  23009650.453
 113948324.466 7  21683600.758    88790779.73546  21683609.969
 134953009.44016  25680694.125   105158191.70752  25680704.449
 112135644.933 8  21338683.086    87378466.71246  21338688.137
 124204553.602 6  23635340.141    96782775.97843  23635348.355
 136418819.931 6  25959631.875   106300393.11842  25959640.793
 106349693.967 8  20237656.563    82869951.78247  20237666.887
 110692319.877 8  21064032.891    86253765.43547  21064038.000
 119837204.960 7  22804239.523    93379660.24945  22804247.504
 133729969.774 5  25447967.266   104205220.98942  25447978.762
 18  3  9  3  3 30.0000000  0 10G12G24G05G19G28G15G06G02G17G13
 120834879.620 7  22994103.023    94157089.53944  22994110.535
 113927913.460 7  21679716.445    88774875.05446  21679726.125
 134872120.15417  25665305.102   105095161.55853  25665311.383
 112188384.865 8  21348719.141    87419562.77346  21348724.367
 124261968.587 6  23646265.156    96827514.93843  23646273.137
 136472767.637 5  25969897.023   106342430.25042  25969906.879
 106358319.158 8  20239297.602    82876672.72647  20239308.102
 110642032.405 8  21054463.500    86214580.41746  21054468.609
 119895495.120 7  22815331.648    93425081.15945  22815339.043
 133799849.19315  25461262.422
 18  3  9  3  4  0.0000000  0  9G12G24G19G28G15G06G02G17G13
 120753235.005 7  22978567.445    94093470.38945  22978574.195
 113908054.002 8  21675937.344    88759400.15946  21675946.789
 112241268.629 8  21358782.188    87460770.89846  21358787.648
 124319615.102 6  23657235.250    96872434.28143  23657243.406
 136526585.927 5  25980136.414   106384366.63942  25980147.969
 106367515.584 8  20241047.570    82883838.78447  20241058.129
 110592184.367 8  21044977.844    86175737.80847  21044982.953
 119953778.819 7  22826423.266    93470497.02245  22826430.133
 133869500.93415  25474520.320
 18  3  9  3  4 30.0000000  0 10G12G24G05G19G28G15G06G02G17G13
 120671610.292 7  22963033.750    94029866.74545  22963041.320
 113888747.121 7  21672263.328    88744355.83546  21672273.359
 134709546.41416  25634368.484   104968477.25652  25634374.414
 112294294.551 8  21368873.500    87502089.80946  21368878.434
 124377493.498 6  23668250.180    96917534.31743  23668256.930
 136580272.597 6  25990352.695   106426200.35643  25990364.133
 106377282.688 8  20242906.039    82891449.52747  20242916.773
 110542776.876 8  21035576.023    86137238.48047  21035580.547
 120012055.696 7  22837512.813    93515907.57945  22837520.031
 133938921.481 5  25487735.039   104368041.95652  25487743.254
 18  3  9  3  5  0.0000000  0  9G12G24G19G28G15G06G02G17G13
 120590006.509 7  22947505.672    93966279.41845  22947512.129
 113869992.836 7  21668694.852    88729742.11646  21668704.355
 112347461.028 8  21378990.203    87543518.23946  21378995.664
 124435604.055 6  23679307.852    96962815.30843  23679315.480
 136633824.959 5  26000541.891
 106387619.529 8  20244873.180    82899504.22047  20244883.563
 110493810.845 8  21026257.609    86099083.15447  21026262.836
 120070325.060 7  22848601.164    93561312.27745  22848608.383
 134008113.804 5  25500902.359   104421957.98542  25500910.164
 18  3  9  3  5 30.0000000  0 10G12G24G05G19G28G15G06G02G17G13
 120508425.262 7  22931981.328    93902709.63645  22931988.723
 113851792.292 7  21665230.836    88715559.87846  21665240.516
 134545742.219 5  25603221.500   104840960.14242  25603235.223
 112400767.131 8  21389133.953    87585055.47746  21389139.414
 124493947.351 6  23690410.305    97008277.59543  23690417.523
 136687241.203 6  26010707.383   106509543.46752  26010718.410
 106398525.468 8  20246948.617    82908002.36947  20246958.941
 110445287.501 8  21017024.125    86061272.78347  21017028.648
 120128586.515 7  22859687.781    93606710.81745  22859695.059
 134077072.870 5  25514023.695
 18  3  9  3  6  0.0000000  0 10G12G24G05G19G28G15G06G02G17G13
 120426867.775 7  22916461.609    93839158.37244  22916468.535
 113834145.630 8  21661873.117    88701809.23746  21661882.563
 134463528.280 6  25587582.406
 112454211.085 8  21399304.430    87626700.12146  21399309.129
 124552523.120 6  23701556.445    97053921.05343  23701564.250
 136740519.068 5  26020846.602   106551058.62042  26020857.512
 106409999.423 8  20249132.039    82916943.12747  20249142.070
 110397207.628 8  21007875.227    86023807.96947  21007879.574
 120186839.180 7  22870772.820    93652102.49545  22870780.098
 134145797.075 6  25527102.063   104529249.60342  25527110.629
 18  3  9  3  6 30.0000000  0  9G12G24G05G19G28G06G02G17G13
 120345335.924 7  22900946.320    93775627.08645  22900954.125
 113817052.911 7  21658619.977    88688490.23946  21658629.949
 134381054.160 6  25571886.211   104712645.96543  25571894.719
 112507791.826 8  21409500.609    87668451.35346  21409505.250
 124611332.082 6  23712747.680    97099746.19743  23712754.254
 106422040.784 8  20251423.250    82926326.02047  20251433.516
 110349571.983 8  20998810.086    85986689.30547  20998814.551
 120245083.382 7  22881856.977    93697487.58345  22881863.844
 134214284.051 5  25540132.844   104582616.06042  25540142.934
 18  3  9  3  7  0.0000000  0  9G12G24G05G19G28G06G02G17G13
 120263830.813 7  22885436.297    93712116.62645  22885443.223
 113800514.785 7  21655473.109    88675603.38446  21655482.320
 134298321.586 6  25556144.055   104648174.93343  25556151.566
 112561507.179 8  21419722.383    87710307.47446  21419727.023
 124670374.158 6  23723983.602    97145753.00043  23723989.648
 106434647.955 8  20253822.414    82936149.80647  20253832.797
 110302381.225 8  20989830.109    85949917.29847  20989834.516
 120303317.237 7  22892937.984    93742864.61645  22892945.203
 134282531.648 5  25553117.109   104635796.07242  25553129.719
 18  3  9  3  7 30.0000000  0  9G12G24G05G19G28G06G02G17G13
 120182353.356 7  22869931.688    93648627.73045  22869938.672
 113784531.601 8  21652431.391    88663148.96746  21652441.480
 134215333.51114  25540344.992   104583509.04352  25540359.008
 112615356.077 8  21429969.313    87752267.67146  21429973.895
 124729649.340 6  23735261.625    97191941.43943  23735270.250
 106447820.182 8  20256328.789    82946413.88647  20256339.582
 110255636.435 8  20980934.695    85913492.80647  20980939.102
 120361540.449 7  22904017.586    93788233.34445  22904024.336
 134350537.645 6  25566063.469
 18  3  9  3  8  0.0000000  0  9G12G24G05G19G28G06G02G17G13
 120100905.278 7  22854432.164    93585161.71045  22854439.852
 113769103.567 8  21649495.516    88651127.12146  21649505.723
 134132091.82716  25524514.164   104518625.41753  25524517.223
 112669337.254 8  21440241.969    87794330.93746  21440246.434
 124789158.066 6  23746586.320    97238311.84843  23746594.770
 106461556.694 8  20258942.477    82957117.67447  20258953.094
 110209338.524 8  20972124.859    85877416.52847  20972129.559
 120419753.133 7  22915094.961    93833593.86945  22915102.414
 134418300.447 5  25578953.953   104741592.05852  25578966.973
 18  3  9  3  8 30.0000000  0  9G12G24G05G19G28G06G02G17G13
 120019487.994 7  22838939.219    93521719.69145  22838946.438
 113754230.638 8  21646665.539    88639537.82946  21646675.512
 134048597.956 5  25508616.664   104453565.35443  25508628.746
 112723449.022 8  21450538.977    87836495.96246  21450543.441
 124848900.509 6  23757955.555    97284864.37143  23757963.242
 106475856.199 8  20261663.922    82968260.16447  20261674.246
 110163487.751 8  20963399.484    85841688.67547  20963404.242
 120477953.786 7  22926170.328    93878945.03945  22926177.547
 134485817.688 5  25591803.297   104794197.93252  25591813.914
 18  3  9  3  9  0.0000000  0  9G12G24G05G19G28G06G02G17G13
 119938103.321 8  22823453.000    93458303.09045  22823459.047
 113739913.852 7  21643941.234    88628381.89346  21643950.914
 133964854.005 6  25492687.555   104388310.25142  25492692.840
 112777690.315 8  21460859.938    87878761.91046  21460865.164
 124908876.900 6  23769369.273    97331599.21143  23769375.906
 106490717.960 8  20264492.055    82979840.77247  20264502.086
 110118085.350 8  20954759.813    85806310.19547  20954764.746
 120536142.353 7  22937242.328    93924286.78245  22937250.074
 134553087.952 6  25604609.703
 18  3  9  3  9 30.0000000  0  9G12G24G05G19G28G06G02G17G13
 119856752.053 7  22807972.047    93394912.52045  22807978.387
 113726152.696 7  21641321.609    88617658.92146  21641332.051
 133880862.720 6  25476703.570   104322862.52543  25476710.496
 112832059.986 8  21471206.180    87921127.89646  21471211.699
 124969087.084 6  23780824.867    97378516.22243  23780833.551
 106506140.383 8  20267426.789    82991858.26147  20267437.230
 110073131.625 8  20946205.469    85771281.33847  20946210.227
 120594318.268 7  22948313.406    93969618.65445  22948321.680
 134620108.551 6  25617362.664   104898839.78652  25617368.008
 18  3  9  3 10  0.0000000  0  9G12G24G05G19G28G06G02G17G13
 119775436.072 8  22792498.148    93331549.43845  22792504.664
 113712947.645 7  21638809.258    88607369.27346  21638819.289
 133796624.373 6  25460668.563   104257222.18842  25460678.711
 112886556.347 8  21481576.758    87963592.60846  21481581.809
 125029531.223 6  23792328.758    97425615.53043  23792336.797
 106522122.422 8  20270467.992    83004311.81547  20270478.551
 110028627.366 8  20937736.117    85736602.69947  20937740.934
 120652480.945 7  22959381.742    94014940.21945  22959389.313
 134686877.282 6  25630064.555   104950867.40542  25630073.531
 18  3  9  3 10 30.0000000  0  9G12G24G05G19G28G06G02G17G13
 119694156.492 7  22777030.391    93268214.73045  22777037.434
 113700298.956 8  21636402.766    88597513.15346  21636412.738
 133712141.359 6  25444596.359   104191391.28343  25444602.992
 112941177.570 8  21491970.563    88006154.60346  21491976.141
 125090209.721 6  23803875.539    97472897.45143  23803882.582
 106538663.019 8  20273615.734    83017200.60447  20273626.117
 109984573.365 8  20929353.336    85702274.92647  20929357.977
 120710630.178 7  22970447.367    94060251.30545  22970454.293
 134753392.188 5  25642724.930
 18  3  9  3 11  0.0000000  0  9G12G24G05G19G28G06G02G17G13
 119612914.999 7  22761571.320    93204909.71045  22761577.953
 113688206.948 7  21634101.578    88588090.80846  21634111.258
 133627416.013 6  25428474.047   104125371.50842  25428480.504
 112995922.871 8  21502388.883    88048813.29146  21502393.348
 125151122.973 6  23815466.859    97520362.32543  23815474.371
 106555761.318 8  20276869.125    83030523.96447  20276880.094
 109940970.516 8  20921055.797    85668298.69547  20921060.848
 120768765.138 7  22981510.383    94105551.27345  22981516.781
 134819652.080 6  25655333.852
 18  3  9  3 11 30.0000000  0  9G12G24G05G19G28G06G02G17G13
 119531712.885 7  22746119.734    93141635.36245  22746125.195
 113676671.941 7  21631906.633    88579102.49846  21631916.840
 133542450.070 6  25412301.328   104059164.35143  25412312.238
 113050790.384 8  21512829.344    88091567.20646  21512834.629
 125212270.341 6  23827102.258    97568009.60143  23827109.828
 106573415.643 8  20280229.117    83044280.59347  20280239.148
 109897819.012 8  20912844.414    85634674.16547  20912848.645
 120826885.324 7  22992569.695    94150839.72645  22992576.914
 134885654.97815  25667893.484
 18  3  9  3 12  0.0000000  0  9G12G24G05G19G28G06G02G17G13
 119450551.954 7  22730674.234    93078393.09845  22730680.984
 113665693.231 7  21629817.148    88570547.65746  21629827.414
 133457245.203 6  25396091.250   103992770.91143  25396098.117
 113105779.367 8  21523293.391    88134415.77046  21523298.500
 125273652.240 6  23838783.711    97615839.63843  23838790.578
 106591624.803 8  20283693.992    83058469.56347  20283704.492
 109855119.444 8  20904719.203    85601401.80147  20904723.844
 120884990.210 7  23003626.719    94196116.27145  23003634.230
 134951397.437 6  25680401.383
 18  3  9  3 12 30.0000000  0  9G12G24G05G19G28G06G02G17G13
 119369433.596 8  22715238.227    93015184.01645  22715244.508
 113655271.652 7  21627834.461    88562426.95046  21627844.316
 133371804.387 6  25379832.281   103926193.63143  25379838.914
 113160888.381 8  21533780.742    88177357.86846  21533785.559
 125335268.896 6  23850508.789    97663852.63143  23850515.715
 106610388.158 8  20287264.391    83073090.37347  20287274.832
 109812873.290 8  20896679.672    85568482.73547  20896684.195
 120943079.490 7  23014680.445    94241380.64345  23014688.426
 135016878.599 6  25692864.469
 18  3  9  3 13  0.0000000  0  9G12G24G05G19G28G06G02G17G13
 119288359.436 7  22699809.625    92952009.35645  22699816.551
 113645407.577 7  21625957.508    88554740.65646  21625967.129
 133286129.347 6  25363526.594   103859433.88442  25363535.746
 113216116.335 8  21544289.758    88220392.64346  21544294.984
 125397120.597 6  23862278.211    97712048.74943  23862285.547
 106629704.561 8  20290940.086    83088142.13147  20290950.586
 109771081.054 8  20888726.469    85535917.38347  20888731.754
 121001153.066 7  23025731.625    94286632.78245  23025739.254
 135082097.161 5  25705268.656
 18  3  9  3 13 30.0000000  0  9G12G24G05G19G28G06G02G17G13
 119207330.631 8  22684391.266    92888870.05545  22684397.488
 113636100.273 7  21624186.273    88547488.21646  21624195.719
 133200221.883 6  25347177.617   103792492.94543  25347188.410
 113271461.246 8  21554821.539    88263518.54646  21554826.707
 125459206.806 6  23874093.297    97760427.56943  23874100.164
 106649572.104 8  20294720.945    83103623.34847  20294731.855
 109729742.490 8  20880860.445    85503705.54147  20880864.910
 121059209.810 7  23036779.992    94331871.80345  23036787.152
 135147050.494 5  25717632.492
 18  3  9  3 14  0.0000000  0  9G12G24G05G19G28G06G02G17G13
 119126349.118 8  22668980.820    92825767.59545  22668987.160
 113627350.052 7  21622520.984    88540669.85946  21622530.898
 133114083.894 6  25330788.438   103725372.36443  25330796.477
 113326922.322 8  21565375.133    88306734.97146  21565380.711
 125521527.972 6  23885952.578    97808989.52243  23885959.621
 106669989.909 8  20298606.211    83119533.33447  20298616.945
 109688858.680 8  20873080.461    85471848.04447  20873085.453
 121117249.527 7  23047824.633    94377097.52845  23047831.852
 135211736.278 5  25729941.789   105359852.09242  25729952.875
 18  3  9  3 14 30.0000000  0  9G12G24G05G19G28G06G02G17G13
 119045416.320 7  22653579.930    92762703.09145  22653586.270
 113619157.211 7  21620961.859    88534285.83546  21620971.891
 133027717.608 6  25314356.406   103658074.01343  25314361.281
 113382498.178 7  21575951.227    88350040.84246  21575957.039
 125584084.358 6  23897857.508    97857734.76243  23897863.730
 106690956.721 8  20302596.141    83135871.12747  20302606.230
 109648430.471 8  20865387.195    85440345.56947  20865392.188
 121175272.001 7  23058865.164    94422309.86745  23058872.617
 135276153.386 6  25742203.203
 18  3  9  3 15  0.0000000  0  9G12G24G05G19G28G06G02G17G13
 118964533.668 8  22638188.000    92699677.67545  22638194.457
 113611521.632 7  21619508.797    88528336.03446  21619517.949
 132941124.812 6  25297879.219   103590599.18443  25297883.156
 113438187.361 7  21586548.883    88393435.00746  21586553.523
 125646875.691 6  23909805.734    97906663.07943  23909811.957
 106712470.849 8  20306690.281    83152635.39547  20306700.430
 109608457.755 8  20857780.453    85409198.02347  20857785.738
 121233276.354 7  23069903.188    94467508.06545  23069910.348
 135340299.18116  25754410.297
 18  3  9  3 15 30.0000000  0  9G12G24G05G19G28G06G02G17G13
 118883702.782 8  22622806.523    92636692.57545  22622812.922
 113604443.100 7  21618161.883    88522820.30146  21618171.387
 132854307.529 6  25281355.563   103522949.31242  25281362.313
 113493988.630 7  21597167.367    88436916.52346  21597172.242
 125709902.048 6  23921799.305    97955774.51442  23921806.055
 106734531.101 8  20310888.008    83169825.22347  20310898.039
 109568941.417 8  20850260.992    85378406.09847  20850265.809
 121291262.381 7  23080938.125    94512691.98745  23080945.227
 135404208.808 6  25766564.023   105509808.34552  25766573.234
 18  3  9  3 16  0.0000000  0  9G12G24G05G19G28G06G02G17G13
 118802925.337 8  22607435.469    92573749.13545  22607441.340
 113597921.398 7  21616920.883    88517738.45946  21616930.973
 132767268.554 5  25264788.313   103455126.61542  25264799.340
 113549900.918 7  21607807.328    88480484.53646  21607812.203
 125773163.292 6  23933837.219    98005068.96543  23933844.730
 106757136.219 8  20315189.680    83187439.61147  20315199.828
 109529882.012 8  20842827.992    85347970.21847  20842833.219
 121349229.888 7  23091968.586    94557861.48245  23091975.980
 135467807.651 6  25778664.383
 18  3  9  3 16 30.0000000  0  9G12G24G05G19G28G06G02G17G13
 118722202.822 8  22592074.414    92510848.49945  22592080.813
 113591956.741 7  21615785.891    88513090.67846  21615795.863
 132680009.347 5  25248182.148   103387132.38743  25248194.875
 113605922.861 7  21618467.461    88524137.99946  21618472.160
 125836659.706 6  23945920.320    98054546.69443  23945927.773
 106780284.751 8  20319594.703    83205477.44447  20319604.910
 109491279.766 8  20835482.297    85317890.57447  20835487.406
 121407177.987 7  23102995.742    94603015.84945  23103002.961
 135531129.455 6  25790715.219   105608689.34342  25790722.145
 18  3  9  3 17  0.0000000  0  9G12G24G05G19G28G06G02G17G13
 118641536.825 8  22576723.969    92447991.88545  22576730.777
 113586548.852 7  21614756.391    88508876.73746  21614766.305
 132592531.929 4  25231535.617   103318968.18943  25231548.402
 113662052.969 7  21629148.430    88567875.74446  21629153.773
 125900391.189 6  23958047.594    98104207.57043  23958055.457
 106803975.171 8  20324102.516    83223937.52247  20324113.016
 109453135.301 8  20828223.516    85288167.64647  20828228.449
 121465106.409 7  23114019.570    94648154.88045  23114025.910
 135594172.414 4  25802710.547   105657813.56142  25802719.699
 18  3  9  3 17 30.0000000  0  8G12G24G05G19G28G06G02G17
 118560929.274 8  22561385.336    92385180.83045  22561391.617
 113581698.010 7  21613833.938    88505096.86446  21613843.383
 132504839.269 5  25214848.703   103250636.25943  25214861.137
 113718290.883 7  21639850.648    88611697.49046  21639855.641
 125964357.997 6  23970219.367    98154051.84543  23970227.641
 106828206.557 8  20328713.813    83242819.13147  20328724.254
 109415449.279 8  20821052.148    85258801.94447  20821057.141
 121523015.397 7  23125039.547    94693278.75945  23125045.828
 18  3  9  3 18  0.0000000  0  8G12G24G05G19G28G06G02G17
 118480381.592 8  22546056.648    92322416.41445  22546063.340
 113577403.653 7  21613016.555    88501750.60746  21613026.293
 132416932.832 5  25198121.500   103182137.73143  25198133.523
 113774634.661 7  21650572.906    88655601.73346  21650577.723
 126028559.574 6  23982437.859    98204079.01743  23982444.375
 106852976.950 8  20333427.328    83262120.74847  20333437.652
 109378221.771 8  20813968.133    85229793.51847  20813972.715
 121580903.974 7  23136055.000    94738386.74445  23136061.984
 18  3  9  3 18 30.0000000  0  8G12G24G05G19G28G06G02G17
 118399895.476 8  22530740.648    92259699.98745  22530747.516
 113573665.484 7  21612305.297    88498837.75646  21612315.035
 132328814.881 6  25181354.914   103113474.34743  25181364.945
 113831083.208 7  21661314.219    88699587.61446  21661319.328
 126092996.201 6  23994699.938    98254289.36143  23994706.219
 106878285.189 8  20338243.742    83281841.46747  20338254.008
 109341453.646 8  20806971.328    85201143.06147  20806975.969
 121638772.086 7  23147067.039    94783478.77545  23147073.496
 18  3  9  3 19  0.0000000  0  8G12G24G05G19G28G06G02G17
 118319471.924 8  22515437.180    92197032.30045  22515443.988
 113570483.551 7  21611699.594    88496358.32946  21611709.332
 132240486.777 5  25164546.469   103044647.25943  25164556.617
 113887634.844 7  21672075.500    88743653.82746  21672080.492
 126157667.528 6  24007006.422    98304682.57143  24007013.641
 106904129.161 8  20343161.539    83301979.64247  20343171.629
 109305144.672 8  20800061.781    85172850.37647  20800066.598
 121696618.939 7  23158075.375    94828554.23945  23158082.008
 18  3  9  3 19 30.0000000  0  8G12G24G05G19G28G06G02G17
 118239113.617 8  22500145.250    92134415.46445  22500152.059
 113567857.166 7  21611199.367    88494311.79746  21611209.574
 132151951.374 5  25147697.797   102975658.62143  25147709.352
 113944289.196 7  21682856.594    88787800.06146  21682861.762
 126222574.085 6  24019357.578    98355259.07243  24019364.445
 106930508.107 8  20348181.320    83322534.68047  20348191.410
 109269295.547 8  20793239.789    85144916.01447  20793244.605
 121754444.577 7  23169077.930    94873613.18545  23169085.266
 18  3  9  3 20  0.0000000  0  8G12G24G05G19G28G06G02G17
 118158821.152 8  22484865.859    92071849.92545  22484872.375
 113565786.594 7  21610805.578    88492698.36846  21610815.727
 132063210.654 6  25130811.742   102906510.01543  25130822.242
 114001044.740 7  21693657.359    88832025.17046  21693661.941
 126287715.461 6  24031753.992    98406018.56843  24031760.566
 106957420.202 8  20353302.219    83343505.15347  20353312.484
 109233906.498 8  20786505.875    85117340.15147  20786510.457
 121812248.680 7  23180078.883    94918655.32945  23180085.691
 18  3  9  3 20 30.0000000  0  8G12G24G05G19G28G06G02G17
 118078596.872 8  22469599.711    92009337.52245  22469606.344
 113564271.504 7  21610517.313    88491517.78146  21610527.109
 131974267.168 5  25113886.242   102837203.37842  25113896.332
 114057900.584 7  21704476.305    88876328.42946  21704481.180
 126353091.517 6  24044193.594    98456960.91643  24044201.516
 106984863.977 8  20358524.695    83364889.92047  20358535.020
 109198978.109 8  20779858.953    85090123.23847  20779863.652
 121870030.946 7  23191074.242    94963680.47445  23191081.754
 18  3  9  3 21  0.0000000  0  8G12G24G05G19G28G06G02G17
 117998442.085 8  22454346.898    91946879.25245  22454353.883
 113563311.074 7  21610334.539    88490769.38846  21610344.805
 131885123.28315  25096924.094   102767740.68252  25096933.070
 114114854.908 7  21715313.875    88920708.42146  21715319.277
 126418702.012 6  24056679.625    98508085.99543  24056685.965
 107012837.650 8  20363847.844    83386687.60047  20363857.816
 109164510.366 8  20773299.820    85063265.27647  20773304.754
 121927790.687 7  23202065.203    95008688.07445  23202072.305
 18  3  9  3 21 30.0000000  0  8G12G24G05G19G28G06G02G17
 117918358.826 8  22439107.906    91884476.73345  22439114.188
 113562905.910 7  21610257.789    88490453.67446  21610267.293
 131795780.299 6  25079924.234   102698122.76843  25079931.395
 114171906.721 7  21726170.656    88965164.38746  21726176.000
 126484546.831 6  24069208.945    98559393.60843  24069215.988
 107041339.651 8  20369271.695    83408896.95547  20369282.078
 109130503.508 8  20766828.625    85036766.44647  20766833.793
 121985527.654 7  23213052.234    95053677.90645  23213059.570
 18  3  9  3 22  0.0000000  0  8G12G24G05G19G28G06G02G17
 117838348.387 8  22423882.234    91822130.94745  22423888.984
 113563054.807 7  21610285.602    88490569.70246  21610295.457
 131706240.773 6  25062885.273   102628351.68343  25062893.430
 114229054.784 7  21737045.773    89009695.35546  21737050.648
 126550626.101 6  24081783.695    98610883.93243  24081791.031
 107070368.424 8  20374795.484    83431516.79747  20374805.984
 109096958.249 8  20760445.328    85010627.31547  20760450.086
 122043241.792 7  23224034.852    95098649.94545  23224041.953
 18  3  9  3 22 30.0000000  0  8G12G24G05G19G28G06G02G17
 117758412.709 8  22408670.633    91759843.42245  22408677.500
 113563757.781 7  21610419.609    88491117.47346  21610429.582
 131616507.061 5  25045808.125   102558429.29642  25045817.277
 114286298.406 7  21747938.211    89054300.77346  21747943.262
 126616939.875 6  24094402.883    98662557.00543  24094410.395
 107099922.497 8  20380419.672    83454545.95247  20380429.879
 109063874.310 8  20754149.414    84984847.64647  20754154.348
 122100932.747 7  23235012.969    95143603.93745  23235019.777
 18  3  9  3 23  0.0000000  0  8G12G24G05G19G28G06G02G17
 117678553.675 8  22393473.477    91697615.61445  22393480.754
 113565013.814 7  21610658.859    88492096.19546  21610668.656
 131526581.563 6  25028696.531   102488357.45943  25028704.980
 114343636.729 7  21758849.531    89098979.97846  21758854.992
 126683487.904 6  24107065.922    98714412.66743  24107073.902
 107129999.943 8  20386143.008    83477982.93647  20386153.215
 109031252.115 8  20747941.820    84959427.77347  20747946.402
 122158600.017 7  23245986.156    95188539.47945  23245993.785
 18  3  9  3 23 30.0000000  0  8G12G24G05G19G28G06G02G17
 117598772.385 8  22378292.414    91635448.38845  22378298.520
 113566822.721 8  21611003.102    88493505.73446  21611012.723
 131436466.145 6  25011547.617   102418137.61443  25011556.242
 114401067.607 7  21769778.813    89143731.31246  21769784.039
 126750270.042 6  24119773.875    98766450.65342  24119781.387
 107160599.103 8  20391966.258    83501826.44047  20391976.289
 108999091.708 8  20741821.672    84934367.74247  20741826.605
 122216243.338 7  23256955.492    95233456.33545  23256962.711
 18  3  9  3 24  0.0000000  0  8G12G24G05G19G28G06G02G17
 117519071.348 8  22363125.836    91573343.70345  22363132.293
 113569184.370 7  21611452.055    88495345.98046  21611462.438
 131346162.760 6  24994363.086   102347771.38342  24994371.652
 114458590.625 7  21780724.789    89188554.44646  21780730.016
 126817285.870 6  24132527.742    98818670.73842  24132534.727
 107191718.654 8  20397887.922    83526075.45347  20397898.305
 108967393.670 8  20735790.141    84909667.98747  20735794.605
 122273862.971 7  23267920.797    95278354.73945  23267927.957
 18  3  9  3 24 30.0000000  0  8G12G24G05G19G28G06G02G17
 117439452.144 8  22347974.930    91511302.77445  22347981.328
 113572098.278 7  21612007.063    88497616.55446  21612016.918
 131255674.182 6  24977145.805   102277260.82243  24977153.434
 114516204.425 7  21791688.727    89233448.32246  21791693.191
 126884535.072 6  24145323.805    98871072.72343  24145331.199
 107223356.707 8  20403908.227    83550728.49447  20403918.727
 108936158.194 8  20729845.859    84885328.67647  20729850.441
 122331458.302 7  23278880.477    95323234.22745  23278887.402
 18  3  9  3 25  0.0000000  0  8G12G24G05G19G28G06G02G17
 117359916.323 8  22332839.438    91449326.82445  22332845.777
 113575563.973 7  21612666.484    88500317.09646  21612675.930
 131165002.922 6  24959890.156   102206607.86243  24959898.781
 114573908.214 7  21802668.500    89278412.31746  21802674.371
 126952017.791 6  24158165.031    98923656.62143  24158173.363
 107255511.632 8  20410027.023    83575784.29347  20410038.109
 108905385.358 8  20723990.258    84861349.85647  20723994.605
 122389029.154 7  23289836.188    95368094.63845  23289843.465
 18  3  9  3 25 30.0000000  0  8G12G24G05G19G28G06G02G17
 117280465.733 8  22317720.438    91387417.28345  22317727.598
 113579580.910 7  21613430.656    88503447.17146  21613440.629
 131074151.197 6  24942602.680   102135814.32443  24942610.133
 114631700.702 7  21813666.164    89323445.41846  21813671.449
 127019733.929 6  24171051.641    98976422.43043  24171059.211
 107288181.827 8  20416243.828    83601241.59647  20416254.504
 108875075.387 8  20718222.086    84837731.70547  20718226.316
 122446575.347 7  23300786.156    95412935.80645  23300794.078
 18  3  9  3 26  0.0000000  0  8G12G24G05G19G28G06G02G17
 117201101.938 8  22302618.273    91325575.37045  22302624.496
 113584148.079 8  21614299.414    88507006.00546  21614309.563
 130983120.687 6  24925280.227   102064881.50143  24925288.148
 114689580.733 7  21824680.695    89368546.73946  21824686.215
 127087683.183 6  24183982.313    99029369.87243  24183989.355
 107321365.174 8  20422558.828    83627098.75747  20422568.859
 108845227.971 8  20712542.586    84814473.99247  20712546.992
 122504096.401 7  23311732.023    95457757.42145  23311739.535
 18  3  9  3 26 30.0000000  0  8G12G24G05G19G28G06G02G17
 117121826.977 8  22287532.633    91263802.68245  22287538.797
 113589265.425 7  21615273.906    88510993.54646  21615283.234
 130891914.095 6  24907924.594   101993811.45443  24907931.695
 114747547.180 7  21835711.789    89413715.39746  21835716.605
 127155865.232 6  24196955.391    99082498.75943  24196964.309
 107355059.992 8  20428970.617    83653354.46747  20428980.883
 108815843.420 8  20706950.438    84791576.94847  20706955.664
 122561592.303 7  23322673.453    95502559.40645  23322680.730
 18  3  9  3 27  0.0000000  0  8G12G24G05G19G28G06G02G17
 117042642.558 8  22272464.125    91202100.54945  22272470.758
 113594931.805 7  21616351.875    88515408.90046  21616361.613
 130800533.824 6  24890533.320   101922605.99743  24890542.121
 114805599.282 7  21846758.828    89458950.79746  21846763.820
 127224279.799 6  24209976.313    99135808.74943  24209983.941
 107389264.413 8  20435479.656    83680007.27347  20435489.629
 108786921.688 8  20701447.172    84769040.54647  20701451.695
 122619062.569 7  23333609.766    95547341.42545  23333617.160
 18  3  9  3 27 30.0000000  0  8G12G24G05G19G28G06G02G17
 116963550.554 8  22257414.016    91140470.43345  22257420.355
 113601147.085 7  21617534.750    88520251.97546  21617544.664
 130708982.363 6  24873113.102   101851267.24443  24873121.375
 114863735.835 7  21857821.781    89504252.00246  21857826.188
 127292926.681 6  24223039.523    99189299.84643  24223046.801
 107423976.966 8  20442085.063    83707056.02047  20442095.211
 108758463.350 8  20696031.859    84746865.22447  20696036.266
 122676507.422 7  23344540.555    95592103.65145  23344548.477
 18  3  9  3 28  0.0000000  0  8G12G24G05G19G28G06G02G17
 116884552.449 8  22242381.047    91078913.47145  22242386.859
 113607910.614 7  21618821.328    88525522.24946  21618831.418
 130617261.789 6  24855658.930   101779796.71543  24855666.500
 114921955.575 7  21868900.453    89549618.03346  21868905.621
 127361805.730 5  24236145.758    99242971.79542  24236154.148
 107459195.551 8  20448787.031    83734499.08447  20448797.121
 108730468.129 8  20690704.656    84725050.78147  20690709.121
 122733926.268 7  23355467.609    95636845.61345  23355474.945
 18  3  9  3 28 30.0000000  0  8G12G24G05G19G28G06G02G17
 116805650.419 8  22227366.641    91017431.37545  22227372.395
 113615221.771 7  21620212.961    88531219.25546  21620222.641
 130525373.822 6  24838171.602   101708195.72742  24838180.754
 114980257.944 7  21879995.633    89595048.45146  21880000.215
 127430917.149 5  24249297.477    99296824.82542  24249305.047
 107494918.757 8  20455584.500    83762335.35147  20455594.941
 108702936.337 8  20685465.125    84703597.44647  20685469.824
 122791319.488 7  23366389.094    95681567.58345  23366396.430
 18  3  9  3 29  0.0000000  0  8G12G24G05G19G28G06G02G17
 116726846.207 8  22212370.641    90956025.50645  22212377.508
 113623079.421 7  21621708.055    88537342.09146  21621717.852
 130433321.510 6  24820656.117   101636466.66843  24820663.336
 115038641.898 7  21891104.945    89640542.44946  21891110.055
 127500260.268 5  24262492.359    99350858.41042  24262500.574
 107531144.344 8  20462478.156    83790563.08947  20462488.305
 108675867.453 8  20680314.133    84682504.82547  20680319.184
 122848686.605 7  23377306.320    95726269.22045  23377313.070
 18  3  9  3 29 30.0000000  0  8G12G24G05G19G28G06G02G17
 116648141.803 8  22197393.633    90894697.40445  22197399.914
 113631482.966 7  21623307.109    88543890.30646  21623317.199
 130341107.634 6  24803108.383   101564611.71543  24803116.539
 115097106.208 8  21902230.820    89686099.04746  21902235.637
 127569834.751 5  24275731.742    99405072.23242  24275740.133
 107567870.616 8  20469466.914    83819180.97147  20469477.707
 108649261.747 8  20675251.039    84661773.11247  20675255.797
 122906027.184 7  23388217.961    95770950.16245  23388224.770
 18  3  9  3 30  0.0000000  0  8G12G24G05G19G28G06G02G17
 116569539.193 8  22182435.414    90833448.62045  22182442.105
 113640431.778 7  21625010.344    88550863.40446  21625019.730
 130248733.784 6  24785530.477   101492632.15743  24785538.164
 115155649.928 7  21913371.070    89731717.52246  21913375.535
 127639640.187 5  24289015.734    99459466.05742  24289023.773
 107605095.563 8  20476550.484    83848187.42847  20476561.102
 108623119.209 8  20670276.422    84641402.32047  20670281.004
 122963341.386 7  23399123.969    95815610.59145  23399131.070
 18  3  9  3 30 30.0000000  0  8G12G24G05G19G28G06G02G17
 116491040.087 8  22167497.219    90772280.49845  22167504.086
 113649924.839 7  21626816.742    88558260.59246  21626826.598
 130156202.796 6  24767922.531   101420530.07343  24767929.164
 115214271.787 7  21924526.250    89777396.88246  21924531.359
 127709676.275 5  24302343.867    99514039.65742  24302351.613
 107642817.288 8  20483728.906    83877580.98547  20483739.289
 108597439.660 8  20665390.336    84621392.29047  20665394.684
 123020629.018 7  23410025.406    95860250.30345  23410032.098
 18  3  9  3 31  0.0000000  0  8G12G24G05G19G28G06G02G17
 116412645.884 8  22152579.945    90711194.11045  22152585.875
 113659962.021 7  21628726.891    88566081.76946  21628736.688
 130063516.642 6  24750284.578   101348307.10243  24750292.969
 115272971.044 7  21935695.836    89823136.56346  21935701.297
 127779942.777 5  24315713.078    99568792.80142  24315722.465
 107681033.889 8  20491001.156    83907360.17047  20491011.656
 108572223.272 8  20660591.133    84601743.17647  20660595.949
 123077889.527 7  23420922.242    95904868.86545  23420928.875
 18  3  9  3 31 30.0000000  0  8G12G24G05G19G28G06G02G17
 116334358.515 7  22137682.023    90650190.97345  22137688.891
 113670541.380 8  21630740.039    88574325.42146  21630749.836
 129970678.408 6  24732618.133   101275965.64943  24732625.820
 115331746.695 7  21946881.156    89868935.76946  21946886.207
 127850439.462 6  24329128.602    99623725.35642  24329138.047
 107719743.415 8  20498367.453    83937523.45047  20498377.543
 108547469.849 8  20655880.695    84582454.80647  20655885.629
 123135123.324 7  23431812.461    95949466.61445  23431820.383
